Address,District,City,Country,Latitude,Longitude
Phường Phúc Xá,Quận Ba Đình,Thành phố Hà Nội,Việt Nam,21.04574,105.848663
Phường Trúc Bạch,Quận Ba Đình,Thành phố Hà Nội,Việt Nam,21.04508,105.842459
Phường Vĩnh Phúc,Quận Ba Đình,Thành phố Hà Nội,Việt Nam,21.042009,105.810749
Phường Cống Vị,Quận Ba Đình,Thành phố Hà Nội,Việt Nam,21.03567,105.810235
Phường Liễu Giai,Quận Ba Đình,Thành phố Hà Nội,Việt Nam,21.037468,105.817602
Phường Nguyễn Trung Trực,Quận Ba Đình,Thành phố Hà Nội,Việt Nam,21.042263,105.847665
Phường Quán Thánh,Quận Ba Đình,Thành phố Hà Nội,Việt Nam,21.041454,105.839353
Phường Ngọc Hà,Quận Ba Đình,Thành phố Hà Nội,Việt Nam,21.037107,105.825912
Phường Điện Biên,Quận Ba Đình,Thành phố Hà Nội,Việt Nam,21.030667,105.83835
Phường Đội Cấn,Quận Ba Đình,Thành phố Hà Nội,Việt Nam,21.034881,105.830439
Phường Ngọc Khánh,Quận Ba Đình,Thành phố Hà Nội,Việt Nam,21.029429,105.811065
Phường Kim Mã,Quận Ba Đình,Thành phố Hà Nội,Việt Nam,21.031279,105.826369
Phường Giảng Võ,Quận Ba Đình,Thành phố Hà Nội,Việt Nam,21.025784,105.81882
Phường Thành Công,Quận Ba Đình,Thành phố Hà Nội,Việt Nam,21.020663,105.815323
Phường Phúc Tân,Quận Hoàn Kiếm,Thành phố Hà Nội,Việt Nam,21.037916,105.855325
Phường Đồng Xuân,Quận Hoàn Kiếm,Thành phố Hà Nội,Việt Nam,21.0387445,105.8489245
Phường Hàng Mã,Quận Hoàn Kiếm,Thành phố Hà Nội,Việt Nam,21.037426,105.846224
Phường Hàng Buồm,Quận Hoàn Kiếm,Thành phố Hà Nội,Việt Nam,21.035668,105.852418
Phường Hàng Đào,Quận Hoàn Kiếm,Thành phố Hà Nội,Việt Nam,21.034632,105.850123
Phường Hàng Bồ,Quận Hoàn Kiếm,Thành phố Hà Nội,Việt Nam,21.035152,105.848127
Phường Cửa Đông,Quận Hoàn Kiếm,Thành phố Hà Nội,Việt Nam,21.032797,105.845906
Phường Lý Thái Tổ,Quận Hoàn Kiếm,Thành phố Hà Nội,Việt Nam,21.030921,105.855744
Phường Hàng Bạc,Quận Hoàn Kiếm,Thành phố Hà Nội,Việt Nam,21.033725,105.853285
Phường Hàng Gai,Quận Hoàn Kiếm,Thành phố Hà Nội,Việt Nam,21.031993,105.84891
Phường Chương Dương,Quận Hoàn Kiếm,Thành phố Hà Nội,Việt Nam,21.024147,105.862118
Phường Hàng Trống,Quận Hoàn Kiếm,Thành phố Hà Nội,Việt Nam,21.029291,105.849778
Phường Cửa Nam,Quận Hoàn Kiếm,Thành phố Hà Nội,Việt Nam,21.024316,105.842531
Phường Hàng Bông,Quận Hoàn Kiếm,Thành phố Hà Nội,Việt Nam,21.029512,105.846051
Phường Tràng Tiền,Quận Hoàn Kiếm,Thành phố Hà Nội,Việt Nam,21.024763,105.854815
Phường Trần Hưng Đạo,Quận Hoàn Kiếm,Thành phố Hà Nội,Việt Nam,21.022732,105.847462
Phường Phan Chu Trinh,Quận Hoàn Kiếm,Thành phố Hà Nội,Việt Nam,21.022494,105.858214
Phường Hàng Bài,Quận Hoàn Kiếm,Thành phố Hà Nội,Việt Nam,21.02105,105.85266
Phường Phú Thượng,Quận Tây Hồ,Thành phố Hà Nội,Việt Nam,21.087063,105.80423
Phường Nhật Tân,Quận Tây Hồ,Thành phố Hà Nội,Việt Nam,21.077485,105.818857
Phường Tứ Liên,Quận Tây Hồ,Thành phố Hà Nội,Việt Nam,21.064137,105.834855
Phường Quảng An,Quận Tây Hồ,Thành phố Hà Nội,Việt Nam,21.063031,105.823939
Phường Xuân La,Quận Tây Hồ,Thành phố Hà Nội,Việt Nam,21.06222,105.806935
Phường Yên Phụ,Quận Tây Hồ,Thành phố Hà Nội,Việt Nam,21.052703,105.840198
Phường Bưởi,Quận Tây Hồ,Thành phố Hà Nội,Việt Nam,21.055589,105.813085
Phường Thụy Khuê,Quận Tây Hồ,Thành phố Hà Nội,Việt Nam,21.043752,105.819789
Phường Thượng Thanh,Quận Long Biên,Thành phố Hà Nội,Việt Nam,21.073158,105.897024
Phường Ngọc Thụy,Quận Long Biên,Thành phố Hà Nội,Việt Nam,21.0581,105.867112
Phường Giang Biên,Quận Long Biên,Thành phố Hà Nội,Việt Nam,21.064648,105.917033
Phường Đức Giang,Quận Long Biên,Thành phố Hà Nội,Việt Nam,21.063677,105.895913
Phường Việt Hưng,Quận Long Biên,Thành phố Hà Nội,Việt Nam,21.057424,105.901476
Phường Gia Thụy,Quận Long Biên,Thành phố Hà Nội,Việt Nam,21.050048,105.887505
Phường Ngọc Lâm,Quận Long Biên,Thành phố Hà Nội,Việt Nam,21.044342,105.870512
Phường Phúc Lợi,Quận Long Biên,Thành phố Hà Nội,Việt Nam,21.042911,105.926367
Phường Bồ Đề,Quận Long Biên,Thành phố Hà Nội,Việt Nam,21.038034,105.873817
Phường Sài Đồng,Quận Long Biên,Thành phố Hà Nội,Việt Nam,21.031797,105.914835
Phường Long Biên,Quận Long Biên,Thành phố Hà Nội,Việt Nam,21.024209,105.886574
Phường Thạch Bàn,Quận Long Biên,Thành phố Hà Nội,Việt Nam,21.02179,105.917164
Phường Phúc Đồng,Quận Long Biên,Thành phố Hà Nội,Việt Nam,21.042069,105.903922
Phường Cự Khối,Quận Long Biên,Thành phố Hà Nội,Việt Nam,21.009745,105.901281
Phường Nghĩa Đô,Quận Cầu Giấy,Thành phố Hà Nội,Việt Nam,21.04466,105.801894
Phường Nghĩa Tân,Quận Cầu Giấy,Thành phố Hà Nội,Việt Nam,21.044995,105.791946
Phường Mai Dịch,Quận Cầu Giấy,Thành phố Hà Nội,Việt Nam,21.039566,105.777078
Phường Dịch Vọng,Quận Cầu Giấy,Thành phố Hà Nội,Việt Nam,21.034283,105.793596
Phường Dịch Vọng Hậu,Quận Cầu Giấy,Thành phố Hà Nội,Việt Nam,21.038146,105.786469
Phường Quan Hoa,Quận Cầu Giấy,Thành phố Hà Nội,Việt Nam,21.035794,105.805019
Phường Yên Hoà,Quận Cầu Giấy,Thành phố Hà Nội,Việt Nam,21.02745,105.798077
Phường Trung Hoà,Quận Cầu Giấy,Thành phố Hà Nội,Việt Nam,21.012307,105.803689
Phường Cát Linh,Quận Đống Đa,Thành phố Hà Nội,Việt Nam,21.028816,105.829586
Phường Văn Miếu,Quận Đống Đa,Thành phố Hà Nội,Việt Nam,21.027836,105.837673
Phường Quốc Tử Giám,Quận Đống Đa,Thành phố Hà Nội,Việt Nam,21.02831175,105.83591925
Phường Láng Thượng,Quận Đống Đa,Thành phố Hà Nội,Việt Nam,21.02092,105.803341
Phường Ô Chợ Dừa,Quận Đống Đa,Thành phố Hà Nội,Việt Nam,21.020389,105.823549
Phường Văn Chương,Quận Đống Đa,Thành phố Hà Nội,Việt Nam,21.022649,105.836013
Phường Hàng Bột,Quận Đống Đa,Thành phố Hà Nội,Việt Nam,21.022709,105.830593
Phường Láng Hạ,Quận Đống Đa,Thành phố Hà Nội,Việt Nam,21.017196,105.810226
Phường Khâm Thiên,Quận Đống Đa,Thành phố Hà Nội,Việt Nam,21.01621,105.840432
Phường Thổ Quan,Quận Đống Đa,Thành phố Hà Nội,Việt Nam,21.018627,105.833873
Phường Nam Đồng,Quận Đống Đa,Thành phố Hà Nội,Việt Nam,21.01493,105.83021
Phường Trung Phụng,Quận Đống Đa,Thành phố Hà Nội,Việt Nam,21.016284,105.837635
Phường Quang Trung,Quận Đống Đa,Thành phố Hà Nội,Việt Nam,21.01054,105.825684
Phường Trung Liệt,Quận Đống Đa,Thành phố Hà Nội,Việt Nam,21.011325,105.821154
Phường Phương Liên,Quận Đống Đa,Thành phố Hà Nội,Việt Nam,21.011173,105.837472
Phường Thịnh Quang,Quận Đống Đa,Thành phố Hà Nội,Việt Nam,21.009263,105.817572
Phường Trung Tự,Quận Đống Đa,Thành phố Hà Nội,Việt Nam,21.009363,105.834956
Phường Kim Liên,Quận Đống Đa,Thành phố Hà Nội,Việt Nam,21.006573,105.836008
Phường Phương Mai,Quận Đống Đa,Thành phố Hà Nội,Việt Nam,21.001782,105.839098
Phường Ngã Tư Sở,Quận Đống Đa,Thành phố Hà Nội,Việt Nam,21.004856,105.822194
Phường Khương Thượng,Quận Đống Đa,Thành phố Hà Nội,Việt Nam,21.003371,105.828303
Phường Nguyễn Du,Quận Hai Bà Trưng,Thành phố Hà Nội,Việt Nam,21.018709,105.845453
Phường Bạch Đằng,Quận Hai Bà Trưng,Thành phố Hà Nội,Việt Nam,21.012673,105.868244
Phường Phạm Đình Hổ,Quận Hai Bà Trưng,Thành phố Hà Nội,Việt Nam,21.013853,105.858974
Phường Lê Đại Hành,Quận Hai Bà Trưng,Thành phố Hà Nội,Việt Nam,21.008184,105.844228
Phường Đồng Nhân,Quận Hai Bà Trưng,Thành phố Hà Nội,Việt Nam,21.01169,105.855881
Phường Phố Huế,Quận Hai Bà Trưng,Thành phố Hà Nội,Việt Nam,21.010994,105.85287
Phường Đống Mác,Quận Hai Bà Trưng,Thành phố Hà Nội,Việt Nam,21.011747,105.860753
Phường Thanh Lương,Quận Hai Bà Trưng,Thành phố Hà Nội,Việt Nam,21.005536,105.865054
Phường Thanh Nhàn,Quận Hai Bà Trưng,Thành phố Hà Nội,Việt Nam,21.007006,105.853498
Phường Cầu Dền,Quận Hai Bà Trưng,Thành phố Hà Nội,Việt Nam,21.005517,105.849865
Phường Bách Khoa,Quận Hai Bà Trưng,Thành phố Hà Nội,Việt Nam,21.004062,105.84582
Phường Đồng Tâm,Quận Hai Bà Trưng,Thành phố Hà Nội,Việt Nam,20.998162,105.846427
Phường Vĩnh Tuy,Quận Hai Bà Trưng,Thành phố Hà Nội,Việt Nam,20.99741,105.869633
Phường Bạch Mai,Quận Hai Bà Trưng,Thành phố Hà Nội,Việt Nam,21.000787,105.851959
Phường Quỳnh Mai,Quận Hai Bà Trưng,Thành phố Hà Nội,Việt Nam,21.001302,105.860064
Phường Quỳnh Lôi,Quận Hai Bà Trưng,Thành phố Hà Nội,Việt Nam,20.99898,105.857294
Phường Minh Khai,Quận Hai Bà Trưng,Thành phố Hà Nội,Việt Nam,20.996007,105.857089
Phường Trương Định,Quận Hai Bà Trưng,Thành phố Hà Nội,Việt Nam,20.992132,105.851818
Phường Thanh Trì,Quận Hoàng Mai,Thành phố Hà Nội,Việt Nam,20.993676,105.891515
Phường Vĩnh Hưng,Quận Hoàng Mai,Thành phố Hà Nội,Việt Nam,20.987126,105.874342
Phường Định Công,Quận Hoàng Mai,Thành phố Hà Nội,Việt Nam,20.982219,105.82759
Phường Mai Động,Quận Hoàng Mai,Thành phố Hà Nội,Việt Nam,20.990953,105.861088
Phường Tương Mai,Quận Hoàng Mai,Thành phố Hà Nội,Việt Nam,20.987435,105.851606
Phường Đại Kim,Quận Hoàng Mai,Thành phố Hà Nội,Việt Nam,20.972034,105.83185
Phường Tân Mai,Quận Hoàng Mai,Thành phố Hà Nội,Việt Nam,20.985283,105.846343
Phường Hoàng Văn Thụ,Quận Hoàng Mai,Thành phố Hà Nội,Việt Nam,20.983611,105.859496
Phường Giáp Bát,Quận Hoàng Mai,Thành phố Hà Nội,Việt Nam,20.983653,105.843255
Phường Lĩnh Nam,Quận Hoàng Mai,Thành phố Hà Nội,Việt Nam,20.980877,105.887672
Phường Thịnh Liệt,Quận Hoàng Mai,Thành phố Hà Nội,Việt Nam,20.975888,105.844677
Phường Trần Phú,Quận Hoàng Mai,Thành phố Hà Nội,Việt Nam,20.972412,105.881181
Phường Hoàng Liệt,Quận Hoàng Mai,Thành phố Hà Nội,Việt Nam,20.962183,105.839261
Phường Yên Sở,Quận Hoàng Mai,Thành phố Hà Nội,Việt Nam,20.965975,105.869153
Phường Nhân Chính,Quận Thanh Xuân,Thành phố Hà Nội,Việt Nam,21.003455,105.80726
Phường Thượng Đình,Quận Thanh Xuân,Thành phố Hà Nội,Việt Nam,20.996842,105.814733
Phường Khương Trung,Quận Thanh Xuân,Thành phố Hà Nội,Việt Nam,20.995665,105.824005
Phường Khương Mai,Quận Thanh Xuân,Thành phố Hà Nội,Việt Nam,20.994613,105.83111
Phường Thanh Xuân Trung,Quận Thanh Xuân,Thành phố Hà Nội,Việt Nam,20.993129,105.807773
Phường Phương Liệt,Quận Thanh Xuân,Thành phố Hà Nội,Việt Nam,20.990952,105.838087
Phường Hạ Đình,Quận Thanh Xuân,Thành phố Hà Nội,Việt Nam,20.990505,105.812061
Phường Khương Đình,Quận Thanh Xuân,Thành phố Hà Nội,Việt Nam,20.988816,105.818529
Phường Thanh Xuân Bắc,Quận Thanh Xuân,Thành phố Hà Nội,Việt Nam,20.991168,105.799984
Phường Thanh Xuân Nam,Quận Thanh Xuân,Thành phố Hà Nội,Việt Nam,20.987184,105.798252
Phường Kim Giang,Quận Thanh Xuân,Thành phố Hà Nội,Việt Nam,20.981965,105.813054
Thị trấn Sóc Sơn,Huyện Sóc Sơn,Thành phố Hà Nội,Việt Nam,21.257549,105.85268
Xã Bắc Sơn,Huyện Sóc Sơn,Thành phố Hà Nội,Việt Nam,21.36453,105.820927
Xã Minh Trí,Huyện Sóc Sơn,Thành phố Hà Nội,Việt Nam,21.272541,105.748791
Xã Hồng Kỳ,Huyện Sóc Sơn,Thành phố Hà Nội,Việt Nam,21.314497,105.856239
Xã Nam Sơn,Huyện Sóc Sơn,Thành phố Hà Nội,Việt Nam,21.320025,105.821784
Xã Trung Giã,Huyện Sóc Sơn,Thành phố Hà Nội,Việt Nam,21.317866,105.894549
Xã Tân Hưng,Huyện Sóc Sơn,Thành phố Hà Nội,Việt Nam,21.28609,105.921312
Xã Minh Phú,Huyện Sóc Sơn,Thành phố Hà Nội,Việt Nam,21.280413,105.791895
Xã Phù Linh,Huyện Sóc Sơn,Thành phố Hà Nội,Việt Nam,21.275789,105.850037
Xã Bắc Phú,Huyện Sóc Sơn,Thành phố Hà Nội,Việt Nam,21.27995,105.896885
Xã Tân Minh,Huyện Sóc Sơn,Thành phố Hà Nội,Việt Nam,21.269775,105.873495
Xã Quang Tiến,Huyện Sóc Sơn,Thành phố Hà Nội,Việt Nam,21.245759,105.810859
Xã Hiền Ninh,Huyện Sóc Sơn,Thành phố Hà Nội,Việt Nam,21.255621,105.796015
Xã Tân Dân,Huyện Sóc Sơn,Thành phố Hà Nội,Việt Nam,21.247782,105.744345
Xã Tiên Dược,Huyện Sóc Sơn,Thành phố Hà Nội,Việt Nam,21.24639,105.847183
Xã Việt Long,Huyện Sóc Sơn,Thành phố Hà Nội,Việt Nam,21.254126,105.922306
Xã Xuân Giang,Huyện Sóc Sơn,Thành phố Hà Nội,Việt Nam,21.244764,105.898425
Xã Mai Đình,Huyện Sóc Sơn,Thành phố Hà Nội,Việt Nam,21.228186,105.824425
Xã Đức Hoà,Huyện Sóc Sơn,Thành phố Hà Nội,Việt Nam,21.232319,105.882341
Xã Thanh Xuân,Huyện Sóc Sơn,Thành phố Hà Nội,Việt Nam,21.222379,105.767194
Xã Đông Xuân,Huyện Sóc Sơn,Thành phố Hà Nội,Việt Nam,21.214461,105.868433
Xã Kim Lũ,Huyện Sóc Sơn,Thành phố Hà Nội,Việt Nam,21.212532,105.907998
Xã Phú Cường,Huyện Sóc Sơn,Thành phố Hà Nội,Việt Nam,21.20691,105.791652
Xã Phú Minh,Huyện Sóc Sơn,Thành phố Hà Nội,Việt Nam,21.197704,105.816786
Xã Phù Lỗ,Huyện Sóc Sơn,Thành phố Hà Nội,Việt Nam,21.195503,105.846754
Xã Xuân Thu,Huyện Sóc Sơn,Thành phố Hà Nội,Việt Nam,21.196819,105.896387
Thị trấn Đông Anh,Huyện Đông Anh,Thành phố Hà Nội,Việt Nam,21.162939,105.846909
Xã Xuân Nộn,Huyện Đông Anh,Thành phố Hà Nội,Việt Nam,21.180492,105.869442
Xã Thuỵ Lâm,Huyện Đông Anh,Thành phố Hà Nội,Việt Nam,21.17556,105.901829
Xã Bắc Hồng,Huyện Đông Anh,Thành phố Hà Nội,Việt Nam,21.17767,105.807035
Xã Nguyên Khê,Huyện Đông Anh,Thành phố Hà Nội,Việt Nam,21.176735,105.837552
Xã Nam Hồng,Huyện Đông Anh,Thành phố Hà Nội,Việt Nam,21.165346,105.785598
Xã Tiên Dương,Huyện Đông Anh,Thành phố Hà Nội,Việt Nam,21.151581,105.830152
Xã Vân Hà,Huyện Đông Anh,Thành phố Hà Nội,Việt Nam,21.144298,105.913069
Xã Uy Nỗ,Huyện Đông Anh,Thành phố Hà Nội,Việt Nam,21.142947,105.85325
Xã Vân Nội,Huyện Đông Anh,Thành phố Hà Nội,Việt Nam,21.150468,105.81319
Xã Liên Hà,Huyện Đông Anh,Thành phố Hà Nội,Việt Nam,21.148567,105.898286
Xã Việt Hùng,Huyện Đông Anh,Thành phố Hà Nội,Việt Nam,21.138809,105.874861
Xã Kim Nỗ,Huyện Đông Anh,Thành phố Hà Nội,Việt Nam,21.134094,105.796031
Xã Kim Chung,Huyện Đông Anh,Thành phố Hà Nội,Việt Nam,21.127167,105.777174
Xã Dục Tú,Huyện Đông Anh,Thành phố Hà Nội,Việt Nam,21.121056,105.903505
Xã Đại Mạch,Huyện Đông Anh,Thành phố Hà Nội,Việt Nam,21.120762,105.758043
Xã Vĩnh Ngọc,Huyện Đông Anh,Thành phố Hà Nội,Việt Nam,21.115883,105.828291
Xã Cổ Loa,Huyện Đông Anh,Thành phố Hà Nội,Việt Nam,21.1129645,105.8732815
Xã Hải Bối,Huyện Đông Anh,Thành phố Hà Nội,Việt Nam,21.111524,105.790149
Xã Xuân Canh,Huyện Đông Anh,Thành phố Hà Nội,Việt Nam,21.08982,105.853496
Xã Võng La,Huyện Đông Anh,Thành phố Hà Nội,Việt Nam,21.111121,105.775431
Xã Tàm Xá,Huyện Đông Anh,Thành phố Hà Nội,Việt Nam,21.096058,105.837511
Xã Mai Lâm,Huyện Đông Anh,Thành phố Hà Nội,Việt Nam,21.086676,105.890722
Xã Đông Hội,Huyện Đông Anh,Thành phố Hà Nội,Việt Nam,21.080991,105.867169
Thị trấn Yên Viên,Huyện Gia Lâm,Thành phố Hà Nội,Việt Nam,21.085477,105.917624
Xã Yên Thường,Huyện Gia Lâm,Thành phố Hà Nội,Việt Nam,21.09982,105.921185
Xã Yên Viên,Huyện Gia Lâm,Thành phố Hà Nội,Việt Nam,21.085477,105.917624
Xã Ninh Hiệp,Huyện Gia Lâm,Thành phố Hà Nội,Việt Nam,21.081697,105.943029
Xã Đình Xuyên,Huyện Gia Lâm,Thành phố Hà Nội,Việt Nam,21.079898,105.93228
Xã Dương Hà,Huyện Gia Lâm,Thành phố Hà Nội,Việt Nam,21.070537,105.927996
Xã Phù Đổng,Huyện Gia Lâm,Thành phố Hà Nội,Việt Nam,21.054876,105.95839
Xã Trung Mầu,Huyện Gia Lâm,Thành phố Hà Nội,Việt Nam,21.058075,105.986294
Xã Lệ Chi,Huyện Gia Lâm,Thành phố Hà Nội,Việt Nam,21.043936,106.005803
Xã Cổ Bi,Huyện Gia Lâm,Thành phố Hà Nội,Việt Nam,21.027994,105.940589
Xã Đặng Xá,Huyện Gia Lâm,Thành phố Hà Nội,Việt Nam,21.029273,105.960736
Xã Phú Thị,Huyện Gia Lâm,Thành phố Hà Nội,Việt Nam,21.020449,105.967374
Xã Kim Sơn,Huyện Gia Lâm,Thành phố Hà Nội,Việt Nam,21.026082,105.989378
Thị trấn Trâu Quỳ,Huyện Gia Lâm,Thành phố Hà Nội,Việt Nam,21.011306,105.934938
Xã Dương Quang,Huyện Gia Lâm,Thành phố Hà Nội,Việt Nam,21.00795,105.982537
Xã Dương Xá,Huyện Gia Lâm,Thành phố Hà Nội,Việt Nam,21.003633,105.967325
Xã Đông Dư,Huyện Gia Lâm,Thành phố Hà Nội,Việt Nam,20.99565,105.91334
Xã Đa Tốn,Huyện Gia Lâm,Thành phố Hà Nội,Việt Nam,20.988203,105.930703
Xã Kiêu Kỵ,Huyện Gia Lâm,Thành phố Hà Nội,Việt Nam,20.977118,105.956183
Xã Bát Tràng,Huyện Gia Lâm,Thành phố Hà Nội,Việt Nam,20.975329,105.912655
Xã Kim Lan,Huyện Gia Lâm,Thành phố Hà Nội,Việt Nam,20.961121,105.90172
Xã Văn Đức,Huyện Gia Lâm,Thành phố Hà Nội,Việt Nam,20.944014,105.900809
Phường Cầu Diễn,Quận Nam Từ Liêm,Thành phố Hà Nội,Việt Nam,21.036209,105.762216
Phường Xuân Phương,Quận Nam Từ Liêm,Thành phố Hà Nội,Việt Nam,21.03008,105.740937
Phường Phương Canh,Quận Nam Từ Liêm,Thành phố Hà Nội,Việt Nam,21.035996,105.743887
Phường Mỹ Đình 1,Quận Nam Từ Liêm,Thành phố Hà Nội,Việt Nam,21.017905,105.774412
Phường Mỹ Đình 2,Quận Nam Từ Liêm,Thành phố Hà Nội,Việt Nam,21.030745,105.777694
Phường Tây Mỗ,Quận Nam Từ Liêm,Thành phố Hà Nội,Việt Nam,21.005263,105.748128
Phường Mễ Trì,Quận Nam Từ Liêm,Thành phố Hà Nội,Việt Nam,21.007688,105.780806
Phường Phú Đô,Quận Nam Từ Liêm,Thành phố Hà Nội,Việt Nam,21.012379,105.763791
Phường Đại Mỗ,Quận Nam Từ Liêm,Thành phố Hà Nội,Việt Nam,20.99559,105.757586
Phường Trung Văn,Quận Nam Từ Liêm,Thành phố Hà Nội,Việt Nam,20.992584,105.788816
Thị trấn Văn Điển,Huyện Thanh Trì,Thành phố Hà Nội,Việt Nam,20.947509,105.845327
Xã Tân Triều,Huyện Thanh Trì,Thành phố Hà Nội,Việt Nam,20.977476,105.79931
Xã Thanh Liệt,Huyện Thanh Trì,Thành phố Hà Nội,Việt Nam,20.963816,105.815614
Xã Tả Thanh Oai,Huyện Thanh Trì,Thành phố Hà Nội,Việt Nam,20.944526,105.80745
Xã Hữu Hoà,Huyện Thanh Trì,Thành phố Hà Nội,Việt Nam,20.948102,105.801369
Xã Tam Hiệp,Huyện Thanh Trì,Thành phố Hà Nội,Việt Nam,20.949304,105.832577
Xã Tứ Hiệp,Huyện Thanh Trì,Thành phố Hà Nội,Việt Nam,20.946705,105.848934
Xã Yên Mỹ,Huyện Thanh Trì,Thành phố Hà Nội,Việt Nam,20.94499,105.874519
Xã Vĩnh Quỳnh,Huyện Thanh Trì,Thành phố Hà Nội,Việt Nam,20.937081,105.8386
Xã Ngũ Hiệp,Huyện Thanh Trì,Thành phố Hà Nội,Việt Nam,20.92428,105.861436
Xã Duyên Hà,Huyện Thanh Trì,Thành phố Hà Nội,Việt Nam,20.926315,105.879279
Xã Ngọc Hồi,Huyện Thanh Trì,Thành phố Hà Nội,Việt Nam,20.920108,105.848859
Xã Vạn Phúc,Huyện Thanh Trì,Thành phố Hà Nội,Việt Nam,20.913677,105.891969
Xã Đại áng,Huyện Thanh Trì,Thành phố Hà Nội,Việt Nam,20.908869,105.823611
Xã Liên Ninh,Huyện Thanh Trì,Thành phố Hà Nội,Việt Nam,20.907157,105.854225
Xã Đông Mỹ,Huyện Thanh Trì,Thành phố Hà Nội,Việt Nam,20.916727,105.874015
Phường Thượng Cát,Quận Bắc Từ Liêm,Thành phố Hà Nội,Việt Nam,21.092682,105.735914
Phường Liên Mạc,Quận Bắc Từ Liêm,Thành phố Hà Nội,Việt Nam,21.085396,105.750665
Phường Đông Ngạc,Quận Bắc Từ Liêm,Thành phố Hà Nội,Việt Nam,21.088329,105.78469
Phường Đức Thắng,Quận Bắc Từ Liêm,Thành phố Hà Nội,Việt Nam,21.078582,105.776142
Phường Thụy Phương,Quận Bắc Từ Liêm,Thành phố Hà Nội,Việt Nam,21.080981,105.766823
Phường Tây Tựu,Quận Bắc Từ Liêm,Thành phố Hà Nội,Việt Nam,21.070961,105.734233
Phường Xuân Đỉnh,Quận Bắc Từ Liêm,Thành phố Hà Nội,Việt Nam,21.074406,105.788937
Phường Xuân Tảo,Quận Bắc Từ Liêm,Thành phố Hà Nội,Việt Nam,21.061169,105.794204
Phường Minh Khai,Quận Bắc Từ Liêm,Thành phố Hà Nội,Việt Nam,21.062397,105.746645
Phường Cổ Nhuế 1,Quận Bắc Từ Liêm,Thành phố Hà Nội,Việt Nam,21.052456,105.783986
Phường Cổ Nhuế 2,Quận Bắc Từ Liêm,Thành phố Hà Nội,Việt Nam,21.065534,105.771809
Phường Phú Diễn,Quận Bắc Từ Liêm,Thành phố Hà Nội,Việt Nam,21.050597,105.763014
Phường Phúc Diễn,Quận Bắc Từ Liêm,Thành phố Hà Nội,Việt Nam,21.047432,105.751801
Thị trấn Chi Đông,Huyện Mê Linh,Thành phố Hà Nội,Việt Nam,21.209679,105.760202
Xã Đại Thịnh,Huyện Mê Linh,Thành phố Hà Nội,Việt Nam,21.186571,105.719779
Xã Kim Hoa,Huyện Mê Linh,Thành phố Hà Nội,Việt Nam,21.215544,105.73847
Xã Thạch Đà,Huyện Mê Linh,Thành phố Hà Nội,Việt Nam,21.170296,105.675169
Xã Tiến Thắng,Huyện Mê Linh,Thành phố Hà Nội,Việt Nam,21.230106,105.669599
Xã Tự Lập,Huyện Mê Linh,Thành phố Hà Nội,Việt Nam,21.213595,105.65116
Thị trấn Quang Minh,Huyện Mê Linh,Thành phố Hà Nội,Việt Nam,21.196432,105.772445
Xã Thanh Lâm,Huyện Mê Linh,Thành phố Hà Nội,Việt Nam,21.203559,105.727949
Xã Tam Đồng,Huyện Mê Linh,Thành phố Hà Nội,Việt Nam,21.19722,105.684963
Xã Liên Mạc,Huyện Mê Linh,Thành phố Hà Nội,Việt Nam,21.193218,105.651832
Xã Vạn Yên,Huyện Mê Linh,Thành phố Hà Nội,Việt Nam,21.198224,105.627895
Xã Chu Phan,Huyện Mê Linh,Thành phố Hà Nội,Việt Nam,21.169554,105.658579
Xã Tiến Thịnh,Huyện Mê Linh,Thành phố Hà Nội,Việt Nam,21.182939,105.631801
Xã Mê Linh,Huyện Mê Linh,Thành phố Hà Nội,Việt Nam,21.162982,105.732839
Xã Văn Khê,Huyện Mê Linh,Thành phố Hà Nội,Việt Nam,21.162709,105.707751
Xã Hoàng Kim,Huyện Mê Linh,Thành phố Hà Nội,Việt Nam,21.165307,105.688322
Xã Tiền Phong,Huyện Mê Linh,Thành phố Hà Nội,Việt Nam,21.155175,105.759219
Xã Tráng Việt,Huyện Mê Linh,Thành phố Hà Nội,Việt Nam,21.140918,105.736552
Phường Nguyễn Trãi,Quận Hà Đông,Thành phố Hà Nội,Việt Nam,20.968945,105.781069
Phường Mộ Lao,Quận Hà Đông,Thành phố Hà Nội,Việt Nam,20.982122,105.782542
Phường Văn Quán,Quận Hà Đông,Thành phố Hà Nội,Việt Nam,20.98256,105.79347
Phường Vạn Phúc,Quận Hà Đông,Thành phố Hà Nội,Việt Nam,20.979815,105.770485
Phường Yết Kiêu,Quận Hà Đông,Thành phố Hà Nội,Việt Nam,20.975965,105.778688
Phường Quang Trung,Quận Hà Đông,Thành phố Hà Nội,Việt Nam,20.969176,105.772198
Phường La Khê,Quận Hà Đông,Thành phố Hà Nội,Việt Nam,20.970403,105.762966
Phường Phú La,Quận Hà Đông,Thành phố Hà Nội,Việt Nam,20.958079,105.763333
Phường Phúc La,Quận Hà Đông,Thành phố Hà Nội,Việt Nam,20.967271,105.788875
Phường Hà Cầu,Quận Hà Đông,Thành phố Hà Nội,Việt Nam,20.96376,105.778082
Phường Yên Nghĩa,Quận Hà Đông,Thành phố Hà Nội,Việt Nam,20.951967,105.739192
Phường Kiến Hưng,Quận Hà Đông,Thành phố Hà Nội,Việt Nam,20.950912,105.785015
Phường Phú Lãm,Quận Hà Đông,Thành phố Hà Nội,Việt Nam,20.942417,105.753265
Phường Phú Lương,Quận Hà Đông,Thành phố Hà Nội,Việt Nam,20.942336,105.762352
Phường Dương Nội,Quận Hà Đông,Thành phố Hà Nội,Việt Nam,20.975048,105.753327
Phường Đồng Mai,Quận Hà Đông,Thành phố Hà Nội,Việt Nam,20.925663,105.735761
Phường Biên Giang,Quận Hà Đông,Thành phố Hà Nội,Việt Nam,20.931837,105.721573
Phường Lê Lợi,Thị xã Sơn Tây,Thành phố Hà Nội,Việt Nam,21.147424,105.505177
Phường Phú Thịnh,Thị xã Sơn Tây,Thành phố Hà Nội,Việt Nam,21.150005,105.497755
Phường Ngô Quyền,Thị xã Sơn Tây,Thành phố Hà Nội,Việt Nam,21.141927,105.501524
Phường Quang Trung,Thị xã Sơn Tây,Thành phố Hà Nội,Việt Nam,21.133653,105.508356
Phường Sơn Lộc,Thị xã Sơn Tây,Thành phố Hà Nội,Việt Nam,21.113333,105.488897
Phường Xuân Khanh,Thị xã Sơn Tây,Thành phố Hà Nội,Việt Nam,21.112129,105.444152
Xã Đường Lâm,Thị xã Sơn Tây,Thành phố Hà Nội,Việt Nam,21.152987,105.466935
Phường Viên Sơn,Thị xã Sơn Tây,Thành phố Hà Nội,Việt Nam,21.144738,105.508942
Xã Xuân Sơn,Thị xã Sơn Tây,Thành phố Hà Nội,Việt Nam,21.137121,105.443441
Phường Trung Hưng,Thị xã Sơn Tây,Thành phố Hà Nội,Việt Nam,21.129473,105.502569
Xã Thanh Mỹ,Thị xã Sơn Tây,Thành phố Hà Nội,Việt Nam,21.118543,105.474513
Phường Trung Sơn Trầm,Thị xã Sơn Tây,Thành phố Hà Nội,Việt Nam,21.111027,105.497243
Xã Kim Sơn,Thị xã Sơn Tây,Thành phố Hà Nội,Việt Nam,21.092878,105.469801
Xã Sơn Đông,Thị xã Sơn Tây,Thành phố Hà Nội,Việt Nam,21.079817,105.507214
Xã Cổ Đông,Thị xã Sơn Tây,Thành phố Hà Nội,Việt Nam,21.054542,105.510058
Thị trấn Tây Đằng,Huyện Ba Vì,Thành phố Hà Nội,Việt Nam,21.198765,105.420364
Xã Phú Cường,Huyện Ba Vì,Thành phố Hà Nội,Việt Nam,21.288741,105.399349
Xã Cổ Đô,Huyện Ba Vì,Thành phố Hà Nội,Việt Nam,21.288929,105.380099
Xã Tản Hồng,Huyện Ba Vì,Thành phố Hà Nội,Việt Nam,21.269841,105.423825
Xã Vạn Thắng,Huyện Ba Vì,Thành phố Hà Nội,Việt Nam,21.257133,105.382625
Xã Châu Sơn,Huyện Ba Vì,Thành phố Hà Nội,Việt Nam,21.261715,105.430821
Xã Phong Vân,Huyện Ba Vì,Thành phố Hà Nội,Việt Nam,21.257545,105.360552
Xã Phú Đông,Huyện Ba Vì,Thành phố Hà Nội,Việt Nam,21.25539,105.377526
Xã Phú Phương,Huyện Ba Vì,Thành phố Hà Nội,Việt Nam,21.249659,105.424041
Xã Phú Châu,Huyện Ba Vì,Thành phố Hà Nội,Việt Nam,21.238912,105.429085
Xã Thái Hòa,Huyện Ba Vì,Thành phố Hà Nội,Việt Nam,21.233801,105.369112
Xã Đồng Thái,Huyện Ba Vì,Thành phố Hà Nội,Việt Nam,21.224234,105.400061
Xã Phú Sơn,Huyện Ba Vì,Thành phố Hà Nội,Việt Nam,21.214316,105.364884
Xã Minh Châu,Huyện Ba Vì,Thành phố Hà Nội,Việt Nam,21.20505,105.458
Xã Vật Lại,Huyện Ba Vì,Thành phố Hà Nội,Việt Nam,21.201377,105.406909
Xã Chu Minh,Huyện Ba Vì,Thành phố Hà Nội,Việt Nam,21.194396,105.441283
Xã Tòng Bạt,Huyện Ba Vì,Thành phố Hà Nội,Việt Nam,21.195553,105.320917
Xã Cẩm Lĩnh,Huyện Ba Vì,Thành phố Hà Nội,Việt Nam,21.156036,105.365425
Xã Sơn Đà,Huyện Ba Vì,Thành phố Hà Nội,Việt Nam,21.174402,105.302436
Xã Đông Quang,Huyện Ba Vì,Thành phố Hà Nội,Việt Nam,21.179714,105.454893
Xã Tiên Phong,Huyện Ba Vì,Thành phố Hà Nội,Việt Nam,21.176208,105.429777
Xã Thụy An,Huyện Ba Vì,Thành phố Hà Nội,Việt Nam,21.15559,105.413526
Xã Cam Thượng,Huyện Ba Vì,Thành phố Hà Nội,Việt Nam,21.163187,105.461466
Xã Thuần Mỹ,Huyện Ba Vì,Thành phố Hà Nội,Việt Nam,21.156198,105.300865
Xã Tản Lĩnh,Huyện Ba Vì,Thành phố Hà Nội,Việt Nam,21.124147,105.389
Xã Ba Trại,Huyện Ba Vì,Thành phố Hà Nội,Việt Nam,21.122085,105.355676
Xã Minh Quang,Huyện Ba Vì,Thành phố Hà Nội,Việt Nam,21.10453,105.340012
Xã Ba Vì,Huyện Ba Vì,Thành phố Hà Nội,Việt Nam,21.085689,105.33674
Xã Vân Hòa,Huyện Ba Vì,Thành phố Hà Nội,Việt Nam,21.080335,105.425082
Xã Yên Bài,Huyện Ba Vì,Thành phố Hà Nội,Việt Nam,21.047976,105.438534
Xã Khánh Thượng,Huyện Ba Vì,Thành phố Hà Nội,Việt Nam,21.020052,105.328696
Thị trấn Phúc Thọ,Huyện Phúc Thọ,Thành phố Hà Nội,Việt Nam,21.108357,105.542311
Xã Vân Hà,Huyện Phúc Thọ,Thành phố Hà Nội,Việt Nam,21.15196,105.622001
Xã Vân Phúc,Huyện Phúc Thọ,Thành phố Hà Nội,Việt Nam,21.147208,105.589394
Xã Vân Nam,Huyện Phúc Thọ,Thành phố Hà Nội,Việt Nam,21.148188,105.611681
Xã Xuân Đình,Huyện Phúc Thọ,Thành phố Hà Nội,Việt Nam,21.108357,105.542311
Xã Sen Phương,Huyện Phúc Thọ,Thành phố Hà Nội,Việt Nam,21.108357,105.542311
Xã Võng Xuyên,Huyện Phúc Thọ,Thành phố Hà Nội,Việt Nam,21.137164,105.553835
Xã Thọ Lộc,Huyện Phúc Thọ,Thành phố Hà Nội,Việt Nam,21.116507,105.536304
Xã Long Xuyên,Huyện Phúc Thọ,Thành phố Hà Nội,Việt Nam,21.123578,105.578459
Xã Thượng Cốc,Huyện Phúc Thọ,Thành phố Hà Nội,Việt Nam,21.131608,105.604227
Xã Hát Môn,Huyện Phúc Thọ,Thành phố Hà Nội,Việt Nam,21.131997,105.619338
Xã Tích Giang,Huyện Phúc Thọ,Thành phố Hà Nội,Việt Nam,21.116945,105.51904
Xã Thanh Đa,Huyện Phúc Thọ,Thành phố Hà Nội,Việt Nam,21.111598,105.622926
Xã Trạch Mỹ Lộc,Huyện Phúc Thọ,Thành phố Hà Nội,Việt Nam,21.100077,105.525089
Xã Phúc Hòa,Huyện Phúc Thọ,Thành phố Hà Nội,Việt Nam,21.108289,105.557159
Xã Ngọc Tảo,Huyện Phúc Thọ,Thành phố Hà Nội,Việt Nam,21.092277,105.603033
Xã Phụng Thượng,Huyện Phúc Thọ,Thành phố Hà Nội,Việt Nam,21.093639,105.585388
Xã Tam Thuấn,Huyện Phúc Thọ,Thành phố Hà Nội,Việt Nam,21.096351,105.624521
Xã Tam Hiệp,Huyện Phúc Thọ,Thành phố Hà Nội,Việt Nam,21.080336,105.62152
Xã Hiệp Thuận,Huyện Phúc Thọ,Thành phố Hà Nội,Việt Nam,21.072002,105.637138
Xã Liên Hiệp,Huyện Phúc Thọ,Thành phố Hà Nội,Việt Nam,21.059226,105.643573
Thị trấn Phùng,Huyện Đan Phượng,Thành phố Hà Nội,Việt Nam,21.085967,105.665252
Xã Trung Châu,Huyện Đan Phượng,Thành phố Hà Nội,Việt Nam,21.149763,105.636074
Xã Thọ An,Huyện Đan Phượng,Thành phố Hà Nội,Việt Nam,21.125858,105.640766
Xã Thọ Xuân,Huyện Đan Phượng,Thành phố Hà Nội,Việt Nam,21.122222,105.655328
Xã Hồng Hà,Huyện Đan Phượng,Thành phố Hà Nội,Việt Nam,21.132392,105.687579
Xã Liên Hồng,Huyện Đan Phượng,Thành phố Hà Nội,Việt Nam,21.124066,105.702389
Xã Liên Hà,Huyện Đan Phượng,Thành phố Hà Nội,Việt Nam,21.113328,105.715839
Xã Hạ Mỗ,Huyện Đan Phượng,Thành phố Hà Nội,Việt Nam,21.113294,105.686267
Xã Liên Trung,Huyện Đan Phượng,Thành phố Hà Nội,Việt Nam,21.105993,105.727973
Xã Phương Đình,Huyện Đan Phượng,Thành phố Hà Nội,Việt Nam,21.108192,105.646995
Xã Thượng Mỗ,Huyện Đan Phượng,Thành phố Hà Nội,Việt Nam,21.109441,105.674175
Xã Tân Hội,Huyện Đan Phượng,Thành phố Hà Nội,Việt Nam,21.094231,105.70245
Xã Tân Lập,Huyện Đan Phượng,Thành phố Hà Nội,Việt Nam,21.084349,105.711554
Xã Đan Phượng,Huyện Đan Phượng,Thành phố Hà Nội,Việt Nam,21.091998,105.662471
Xã Đồng Tháp,Huyện Đan Phượng,Thành phố Hà Nội,Việt Nam,21.081088,105.652698
Xã Song Phượng,Huyện Đan Phượng,Thành phố Hà Nội,Việt Nam,21.08323,105.667708
Thị trấn Trạm Trôi,Huyện Hoài Đức,Thành phố Hà Nội,Việt Nam,21.067877,105.707657
Xã Đức Thượng,Huyện Hoài Đức,Thành phố Hà Nội,Việt Nam,21.072202,105.691686
Xã Minh Khai,Huyện Hoài Đức,Thành phố Hà Nội,Việt Nam,21.067691,105.672131
Xã Dương Liễu,Huyện Hoài Đức,Thành phố Hà Nội,Việt Nam,21.057699,105.669394
Xã Di Trạch,Huyện Hoài Đức,Thành phố Hà Nội,Việt Nam,21.0451,105.723997
Xã Đức Giang,Huyện Hoài Đức,Thành phố Hà Nội,Việt Nam,21.05775,105.701308
Xã Cát Quế,Huyện Hoài Đức,Thành phố Hà Nội,Việt Nam,21.051228,105.671795
Xã Kim Chung,Huyện Hoài Đức,Thành phố Hà Nội,Việt Nam,21.052126,105.71185
Xã Yên Sở,Huyện Hoài Đức,Thành phố Hà Nội,Việt Nam,21.042618,105.676124
Xã Sơn Đồng,Huyện Hoài Đức,Thành phố Hà Nội,Việt Nam,21.040925,105.699583
Xã Vân Canh,Huyện Hoài Đức,Thành phố Hà Nội,Việt Nam,21.037358,105.733827
Xã Đắc Sở,Huyện Hoài Đức,Thành phố Hà Nội,Việt Nam,21.035543,105.682226
Xã Lại Yên,Huyện Hoài Đức,Thành phố Hà Nội,Việt Nam,21.025285,105.707982
Xã Tiền Yên,Huyện Hoài Đức,Thành phố Hà Nội,Việt Nam,21.024826,105.684069
Xã Song Phương,Huyện Hoài Đức,Thành phố Hà Nội,Việt Nam,21.016172,105.699562
Xã An Khánh,Huyện Hoài Đức,Thành phố Hà Nội,Việt Nam,21.004948,105.724482
Xã An Thượng,Huyện Hoài Đức,Thành phố Hà Nội,Việt Nam,20.992708,105.704705
Xã Vân Côn,Huyện Hoài Đức,Thành phố Hà Nội,Việt Nam,20.9935,105.676792
Xã La Phù,Huyện Hoài Đức,Thành phố Hà Nội,Việt Nam,20.981684,105.732237
Xã Đông La,Huyện Hoài Đức,Thành phố Hà Nội,Việt Nam,20.966336,105.720956
Xã Đông Xuân,Huyện Quốc Oai,Thành phố Hà Nội,Việt Nam,20.957997,105.523235
Thị trấn Quốc Oai,Huyện Quốc Oai,Thành phố Hà Nội,Việt Nam,20.990187,105.640876
Xã Sài Sơn,Huyện Quốc Oai,Thành phố Hà Nội,Việt Nam,21.024191,105.648985
Xã Phượng Cách,Huyện Quốc Oai,Thành phố Hà Nội,Việt Nam,21.015678,105.665775
Xã Yên Sơn,Huyện Quốc Oai,Thành phố Hà Nội,Việt Nam,21.007154,105.66115
Xã Ngọc Liệp,Huyện Quốc Oai,Thành phố Hà Nội,Việt Nam,20.99496,105.601958
Xã Ngọc Mỹ,Huyện Quốc Oai,Thành phố Hà Nội,Việt Nam,20.990961,105.626204
Xã Liệp Tuyết,Huyện Quốc Oai,Thành phố Hà Nội,Việt Nam,20.98135,105.598911
Xã Thạch Thán,Huyện Quốc Oai,Thành phố Hà Nội,Việt Nam,20.98935,105.635112
Xã Đồng Quang,Huyện Quốc Oai,Thành phố Hà Nội,Việt Nam,20.9779,105.656618
Xã Phú Cát,Huyện Quốc Oai,Thành phố Hà Nội,Việt Nam,20.970442,105.554365
Xã Tuyết Nghĩa,Huyện Quốc Oai,Thành phố Hà Nội,Việt Nam,20.970165,105.591826
Xã Nghĩa Hương,Huyện Quốc Oai,Thành phố Hà Nội,Việt Nam,20.972598,105.613202
Xã Cộng Hòa,Huyện Quốc Oai,Thành phố Hà Nội,Việt Nam,20.974212,105.674094
Xã Tân Phú,Huyện Quốc Oai,Thành phố Hà Nội,Việt Nam,20.972468,105.695471
Xã Đại Thành,Huyện Quốc Oai,Thành phố Hà Nội,Việt Nam,20.962118,105.710677
Xã Phú Mãn,Huyện Quốc Oai,Thành phố Hà Nội,Việt Nam,20.957852,105.533498
Xã Cấn Hữu,Huyện Quốc Oai,Thành phố Hà Nội,Việt Nam,20.955309,105.614917
Xã Tân Hòa,Huyện Quốc Oai,Thành phố Hà Nội,Việt Nam,20.965778,105.679166
Xã Hòa Thạch,Huyện Quốc Oai,Thành phố Hà Nội,Việt Nam,20.947755,105.567534
Xã Đông Yên,Huyện Quốc Oai,Thành phố Hà Nội,Việt Nam,20.934782,105.597527
Xã Yên Trung,Huyện Thạch Thất,Thành phố Hà Nội,Việt Nam,20.994727,105.430375
Xã Yên Bình,Huyện Thạch Thất,Thành phố Hà Nội,Việt Nam,20.99086,105.456796
Xã Tiến Xuân,Huyện Thạch Thất,Thành phố Hà Nội,Việt Nam,20.991438,105.485693
Thị trấn Liên Quan,Huyện Thạch Thất,Thành phố Hà Nội,Việt Nam,21.055589,105.575128
Xã Đại Đồng,Huyện Thạch Thất,Thành phố Hà Nội,Việt Nam,21.083515,105.56447
Xã Cẩm Yên,Huyện Thạch Thất,Thành phố Hà Nội,Việt Nam,21.085722,105.538418
Xã Lại Thượng,Huyện Thạch Thất,Thành phố Hà Nội,Việt Nam,21.071827,105.552585
Xã Phú Kim,Huyện Thạch Thất,Thành phố Hà Nội,Việt Nam,21.065294,105.568333
Xã Hương Ngải,Huyện Thạch Thất,Thành phố Hà Nội,Việt Nam,21.056536,105.601906
Xã Canh Nậu,Huyện Thạch Thất,Thành phố Hà Nội,Việt Nam,21.053797,105.61507
Xã Kim Quan,Huyện Thạch Thất,Thành phố Hà Nội,Việt Nam,21.049585,105.572139
Xã Dị Nậu,Huyện Thạch Thất,Thành phố Hà Nội,Việt Nam,21.051222,105.623235
Xã Bình Yên,Huyện Thạch Thất,Thành phố Hà Nội,Việt Nam,21.041198,105.541455
Xã Chàng Sơn,Huyện Thạch Thất,Thành phố Hà Nội,Việt Nam,21.038556,105.602474
Xã Thạch Hoà,Huyện Thạch Thất,Thành phố Hà Nội,Việt Nam,21.001292,105.524198
Xã Cần Kiệm,Huyện Thạch Thất,Thành phố Hà Nội,Việt Nam,21.026531,105.580088
Xã Hữu Bằng,Huyện Thạch Thất,Thành phố Hà Nội,Việt Nam,21.024083,105.611772
Xã Phùng Xá,Huyện Thạch Thất,Thành phố Hà Nội,Việt Nam,21.018942,105.621645
Xã Tân Xã,Huyện Thạch Thất,Thành phố Hà Nội,Việt Nam,21.02114,105.550455
Xã Thạch Xá,Huyện Thạch Thất,Thành phố Hà Nội,Việt Nam,21.030632,105.606702
Xã Bình Phú,Huyện Thạch Thất,Thành phố Hà Nội,Việt Nam,21.015391,105.610018
Xã Hạ Bằng,Huyện Thạch Thất,Thành phố Hà Nội,Việt Nam,21.010354,105.55682
Xã Đồng Trúc,Huyện Thạch Thất,Thành phố Hà Nội,Việt Nam,20.995259,105.571285
Thị trấn Chúc Sơn,Huyện Chương Mỹ,Thành phố Hà Nội,Việt Nam,20.925026,105.710543
Thị trấn Xuân Mai,Huyện Chương Mỹ,Thành phố Hà Nội,Việt Nam,20.899253,105.571985
Xã Phụng Châu,Huyện Chương Mỹ,Thành phố Hà Nội,Việt Nam,20.945414,105.706241
Xã Tiên Phương,Huyện Chương Mỹ,Thành phố Hà Nội,Việt Nam,20.940904,105.683916
Xã Đông Sơn,Huyện Chương Mỹ,Thành phố Hà Nội,Việt Nam,20.921587,105.618707
Xã Đông Phương Yên,Huyện Chương Mỹ,Thành phố Hà Nội,Việt Nam,20.920043,105.635479
Xã Phú Nghĩa,Huyện Chương Mỹ,Thành phố Hà Nội,Việt Nam,20.928259,105.662437
Xã Trường Yên,Huyện Chương Mỹ,Thành phố Hà Nội,Việt Nam,20.913888,105.646766
Xã Ngọc Hòa,Huyện Chương Mỹ,Thành phố Hà Nội,Việt Nam,20.920068,105.693454
Xã Thủy Xuân Tiên,Huyện Chương Mỹ,Thành phố Hà Nội,Việt Nam,20.889173,105.586267
Xã Thanh Bình,Huyện Chương Mỹ,Thành phố Hà Nội,Việt Nam,20.90499,105.626509
Xã Trung Hòa,Huyện Chương Mỹ,Thành phố Hà Nội,Việt Nam,20.90102,105.644394
Xã Đại Yên,Huyện Chương Mỹ,Thành phố Hà Nội,Việt Nam,20.972821,106.928204
Xã Thụy Hương,Huyện Chương Mỹ,Thành phố Hà Nội,Việt Nam,20.900559,105.716046
Xã Tốt Động,Huyện Chương Mỹ,Thành phố Hà Nội,Việt Nam,20.879123,105.670147
Xã Lam Điền,Huyện Chương Mỹ,Thành phố Hà Nội,Việt Nam,20.891691,105.725356
Xã Tân Tiến,Huyện Chương Mỹ,Thành phố Hà Nội,Việt Nam,20.869775,105.608779
Xã Nam Phương Tiến,Huyện Chương Mỹ,Thành phố Hà Nội,Việt Nam,20.833821,105.580681
Xã Hợp Đồng,Huyện Chương Mỹ,Thành phố Hà Nội,Việt Nam,20.879835,105.698952
Xã Hoàng Văn Thụ,Huyện Chương Mỹ,Thành phố Hà Nội,Việt Nam,20.851137,105.628494
Xã Hoàng Diệu,Huyện Chương Mỹ,Thành phố Hà Nội,Việt Nam,20.862274,105.732811
Xã Hữu Văn,Huyện Chương Mỹ,Thành phố Hà Nội,Việt Nam,20.864543,105.660359
Xã Quảng Bị,Huyện Chương Mỹ,Thành phố Hà Nội,Việt Nam,20.864949,105.701196
Xã Mỹ Lương,Huyện Chương Mỹ,Thành phố Hà Nội,Việt Nam,20.853396,105.662782
Xã Thượng Vực,Huyện Chương Mỹ,Thành phố Hà Nội,Việt Nam,20.84845,105.724959
Xã Hồng Phong,Huyện Chương Mỹ,Thành phố Hà Nội,Việt Nam,20.840744,105.699215
Xã Đồng Phú,Huyện Chương Mỹ,Thành phố Hà Nội,Việt Nam,20.831667,105.709859
Xã Trần Phú,Huyện Chương Mỹ,Thành phố Hà Nội,Việt Nam,20.8325,105.660407
Xã Văn Võ,Huyện Chương Mỹ,Thành phố Hà Nội,Việt Nam,20.833816,105.743682
Xã Đồng Lạc,Huyện Chương Mỹ,Thành phố Hà Nội,Việt Nam,20.822364,105.683016
Xã Hòa Chính,Huyện Chương Mỹ,Thành phố Hà Nội,Việt Nam,20.810416,105.719346
Xã Phú Nam An,Huyện Chương Mỹ,Thành phố Hà Nội,Việt Nam,20.813944,105.748151
Thị trấn Kim Bài,Huyện Thanh Oai,Thành phố Hà Nội,Việt Nam,20.857422,105.763001
Xã Cự Khê,Huyện Thanh Oai,Thành phố Hà Nội,Việt Nam,20.925917,105.788541
Xã Bích Hòa,Huyện Thanh Oai,Thành phố Hà Nội,Việt Nam,20.913636,105.760945
Xã Mỹ Hưng,Huyện Thanh Oai,Thành phố Hà Nội,Việt Nam,20.898535,105.801821
Xã Cao Viên,Huyện Thanh Oai,Thành phố Hà Nội,Việt Nam,20.904089,105.744664
Xã Bình Minh,Huyện Thanh Oai,Thành phố Hà Nội,Việt Nam,20.89491,105.767365
Xã Tam Hưng,Huyện Thanh Oai,Thành phố Hà Nội,Việt Nam,20.884401,105.784497
Xã Thanh Cao,Huyện Thanh Oai,Thành phố Hà Nội,Việt Nam,20.887484,105.756789
Xã Thanh Thùy,Huyện Thanh Oai,Thành phố Hà Nội,Việt Nam,20.875141,105.810218
Xã Thanh Mai,Huyện Thanh Oai,Thành phố Hà Nội,Việt Nam,20.864419,105.745398
Xã Thanh Văn,Huyện Thanh Oai,Thành phố Hà Nội,Việt Nam,20.853196,105.810815
Xã Đỗ Động,Huyện Thanh Oai,Thành phố Hà Nội,Việt Nam,20.845697,105.783685
Xã Kim An,Huyện Thanh Oai,Thành phố Hà Nội,Việt Nam,20.842763,105.747604
Xã Kim Thư,Huyện Thanh Oai,Thành phố Hà Nội,Việt Nam,20.837676,105.766976
Xã Phương Trung,Huyện Thanh Oai,Thành phố Hà Nội,Việt Nam,20.827872,105.764055
Xã Tân Ước,Huyện Thanh Oai,Thành phố Hà Nội,Việt Nam,20.830274,105.805443
Xã Dân Hòa,Huyện Thanh Oai,Thành phố Hà Nội,Việt Nam,20.813999,105.779484
Xã Liên Châu,Huyện Thanh Oai,Thành phố Hà Nội,Việt Nam,20.811107,105.827766
Xã Cao Dương,Huyện Thanh Oai,Thành phố Hà Nội,Việt Nam,20.81197,105.761751
Xã Xuân Dương,Huyện Thanh Oai,Thành phố Hà Nội,Việt Nam,20.80198,105.743575
Xã Hồng Dương,Huyện Thanh Oai,Thành phố Hà Nội,Việt Nam,20.796327,105.784711
Thị trấn Thường Tín,Huyện Thường Tín,Thành phố Hà Nội,Việt Nam,20.873849,105.862741
Xã Ninh Sở,Huyện Thường Tín,Thành phố Hà Nội,Việt Nam,20.896482,105.888533
Xã Nhị Khê,Huyện Thường Tín,Thành phố Hà Nội,Việt Nam,20.894667,105.846378
Xã Duyên Thái,Huyện Thường Tín,Thành phố Hà Nội,Việt Nam,20.899863,105.861854
Xã Khánh Hà,Huyện Thường Tín,Thành phố Hà Nội,Việt Nam,20.895703,105.819306
Xã Hòa Bình,Huyện Thường Tín,Thành phố Hà Nội,Việt Nam,20.874867,105.836424
Xã Văn Bình,Huyện Thường Tín,Thành phố Hà Nội,Việt Nam,20.879525,105.86803
Xã Hiền Giang,Huyện Thường Tín,Thành phố Hà Nội,Việt Nam,20.874801,105.821015
Xã Hồng Vân,Huyện Thường Tín,Thành phố Hà Nội,Việt Nam,20.874784,105.911705
Xã Vân Tảo,Huyện Thường Tín,Thành phố Hà Nội,Việt Nam,20.869748,105.892315
Xã Liên Phương,Huyện Thường Tín,Thành phố Hà Nội,Việt Nam,20.876009,105.881611
Xã Văn Phú,Huyện Thường Tín,Thành phố Hà Nội,Việt Nam,20.86931,105.854797
Xã Tự Nhiên,Huyện Thường Tín,Thành phố Hà Nội,Việt Nam,20.857022,105.917689
Xã Tiền Phong,Huyện Thường Tín,Thành phố Hà Nội,Việt Nam,20.859966,105.829616
Xã Hà Hồi,Huyện Thường Tín,Thành phố Hà Nội,Việt Nam,20.867632,105.874921
Xã Thư Phú,Huyện Thường Tín,Thành phố Hà Nội,Việt Nam,20.863275,105.904513
Xã Nguyễn Trãi,Huyện Thường Tín,Thành phố Hà Nội,Việt Nam,20.849058,105.851364
Xã Quất Động,Huyện Thường Tín,Thành phố Hà Nội,Việt Nam,20.841511,105.872685
Xã Chương Dương,Huyện Thường Tín,Thành phố Hà Nội,Việt Nam,20.845044,105.903356
Xã Tân Minh,Huyện Thường Tín,Thành phố Hà Nội,Việt Nam,20.836076,105.84378
Xã Lê Lợi,Huyện Thường Tín,Thành phố Hà Nội,Việt Nam,20.827006,105.902222
Xã Thắng Lợi,Huyện Thường Tín,Thành phố Hà Nội,Việt Nam,20.823246,105.883273
Xã Dũng Tiến,Huyện Thường Tín,Thành phố Hà Nội,Việt Nam,20.819323,105.857076
Xã Thống Nhất,Huyện Thường Tín,Thành phố Hà Nội,Việt Nam,20.806061,105.905593
Xã Nghiêm Xuyên,Huyện Thường Tín,Thành phố Hà Nội,Việt Nam,20.805287,105.856144
Xã Tô Hiệu,Huyện Thường Tín,Thành phố Hà Nội,Việt Nam,20.805197,105.887993
Xã Văn Tự,Huyện Thường Tín,Thành phố Hà Nội,Việt Nam,20.790423,105.889793
Xã Vạn Điểm,Huyện Thường Tín,Thành phố Hà Nội,Việt Nam,20.777303,105.904767
Xã Minh Cường,Huyện Thường Tín,Thành phố Hà Nội,Việt Nam,20.765056,105.906626
Thị trấn Phú Minh,Huyện Phú Xuyên,Thành phố Hà Nội,Việt Nam,20.781537,105.91731
Thị trấn Phú Xuyên,Huyện Phú Xuyên,Thành phố Hà Nội,Việt Nam,20.748181,105.9111
Xã Hồng Minh,Huyện Phú Xuyên,Thành phố Hà Nội,Việt Nam,20.792207,105.823741
Xã Phượng Dực,Huyện Phú Xuyên,Thành phố Hà Nội,Việt Nam,20.793303,105.853666
Xã Nam Tiến,Huyện Phú Xuyên,Thành phố Hà Nội,Việt Nam,20.748181,105.9111
Xã Tri Trung,Huyện Phú Xuyên,Thành phố Hà Nội,Việt Nam,20.779611,105.829101
Xã Đại Thắng,Huyện Phú Xuyên,Thành phố Hà Nội,Việt Nam,20.773444,105.879096
Xã Phú Túc,Huyện Phú Xuyên,Thành phố Hà Nội,Việt Nam,20.768911,105.809671
Xã Văn Hoàng,Huyện Phú Xuyên,Thành phố Hà Nội,Việt Nam,20.773633,105.848816
Xã Hồng Thái,Huyện Phú Xuyên,Thành phố Hà Nội,Việt Nam,20.759195,105.957367
Xã Hoàng Long,Huyện Phú Xuyên,Thành phố Hà Nội,Việt Nam,20.758425,105.834142
Xã Quang Trung,Huyện Phú Xuyên,Thành phố Hà Nội,Việt Nam,20.750388,105.885883
Xã Nam Phong,Huyện Phú Xuyên,Thành phố Hà Nội,Việt Nam,20.755921,105.928309
Xã Nam Triều,Huyện Phú Xuyên,Thành phố Hà Nội,Việt Nam,20.747537,105.932099
Xã Tân Dân,Huyện Phú Xuyên,Thành phố Hà Nội,Việt Nam,20.743797,105.870283
Xã Sơn Hà,Huyện Phú Xuyên,Thành phố Hà Nội,Việt Nam,20.742699,105.897594
Xã Chuyên Mỹ,Huyện Phú Xuyên,Thành phố Hà Nội,Việt Nam,20.733666,105.867543
Xã Khai Thái,Huyện Phú Xuyên,Thành phố Hà Nội,Việt Nam,20.718077,105.957461
Xã Phúc Tiến,Huyện Phú Xuyên,Thành phố Hà Nội,Việt Nam,20.721846,105.922444
Xã Vân Từ,Huyện Phú Xuyên,Thành phố Hà Nội,Việt Nam,20.718376,105.890036
Xã Tri Thủy,Huyện Phú Xuyên,Thành phố Hà Nội,Việt Nam,20.701385,105.952811
Xã Đại Xuyên,Huyện Phú Xuyên,Thành phố Hà Nội,Việt Nam,20.698403,105.923764
Xã Phú Yên,Huyện Phú Xuyên,Thành phố Hà Nội,Việt Nam,20.705465,105.901718
Xã Bạch Hạ,Huyện Phú Xuyên,Thành phố Hà Nội,Việt Nam,20.680767,105.952121
Xã Quang Lãng,Huyện Phú Xuyên,Thành phố Hà Nội,Việt Nam,20.69137,105.979922
Xã Châu Can,Huyện Phú Xuyên,Thành phố Hà Nội,Việt Nam,20.686424,105.906072
Xã Minh Tân,Huyện Phú Xuyên,Thành phố Hà Nội,Việt Nam,20.672063,105.963245
Thị trấn Vân Đình,Huyện Ứng Hòa,Thành phố Hà Nội,Việt Nam,20.735897,105.768508
Xã Viên An,Huyện Ứng Hòa,Thành phố Hà Nội,Việt Nam,20.804837,105.717684
Xã Viên Nội,Huyện Ứng Hòa,Thành phố Hà Nội,Việt Nam,20.789739,105.720897
Xã Hoa Sơn,Huyện Ứng Hòa,Thành phố Hà Nội,Việt Nam,20.776152,105.745547
Xã Quảng Phú Cầu,Huyện Ứng Hòa,Thành phố Hà Nội,Việt Nam,20.781372,105.784934
Xã Trường Thịnh,Huyện Ứng Hòa,Thành phố Hà Nội,Việt Nam,20.768224,105.765025
Xã Cao Thành,Huyện Ứng Hòa,Thành phố Hà Nội,Việt Nam,20.77174,105.729464
Xã Liên Bạt,Huyện Ứng Hòa,Thành phố Hà Nội,Việt Nam,20.743499,105.771113
Xã Sơn Công,Huyện Ứng Hòa,Thành phố Hà Nội,Việt Nam,20.7514,105.722093
Xã Đồng Tiến,Huyện Ứng Hòa,Thành phố Hà Nội,Việt Nam,20.734217,105.744742
Xã Phương Tú,Huyện Ứng Hòa,Thành phố Hà Nội,Việt Nam,20.728218,105.794204
Xã Trung Tú,Huyện Ứng Hòa,Thành phố Hà Nội,Việt Nam,20.722686,105.834658
Xã Đồng Tân,Huyện Ứng Hòa,Thành phố Hà Nội,Việt Nam,20.710368,105.841225
Xã Tảo Dương Văn,Huyện Ứng Hòa,Thành phố Hà Nội,Việt Nam,20.712539,105.791309
Xã Vạn Thái,Huyện Ứng Hòa,Thành phố Hà Nội,Việt Nam,20.70514,105.773166
Xã Minh Đức,Huyện Ứng Hòa,Thành phố Hà Nội,Việt Nam,20.698517,105.863163
Xã Hòa Lâm,Huyện Ứng Hòa,Thành phố Hà Nội,Việt Nam,20.688028,105.813575
Xã Hòa Xá,Huyện Ứng Hòa,Thành phố Hà Nội,Việt Nam,20.695897,105.756369
Xã Trầm Lộng,Huyện Ứng Hòa,Thành phố Hà Nội,Việt Nam,20.690576,105.835544
Xã Kim Đường,Huyện Ứng Hòa,Thành phố Hà Nội,Việt Nam,20.678722,105.867327
Xã Hòa Nam,Huyện Ứng Hòa,Thành phố Hà Nội,Việt Nam,20.686162,105.753832
Xã Hòa Phú,Huyện Ứng Hòa,Thành phố Hà Nội,Việt Nam,20.669974,105.778819
Xã Đội Bình,Huyện Ứng Hòa,Thành phố Hà Nội,Việt Nam,20.651752,105.81887
Xã Đại Hùng,Huyện Ứng Hòa,Thành phố Hà Nội,Việt Nam,20.661517,105.841412
Xã Đông Lỗ,Huyện Ứng Hòa,Thành phố Hà Nội,Việt Nam,20.659477,105.887021
Xã Phù Lưu,Huyện Ứng Hòa,Thành phố Hà Nội,Việt Nam,20.660243,105.78549
Xã Đại Cường,Huyện Ứng Hòa,Thành phố Hà Nội,Việt Nam,20.652718,105.860029
Xã Lưu Hoàng,Huyện Ứng Hòa,Thành phố Hà Nội,Việt Nam,20.645407,105.804191
Xã Hồng Quang,Huyện Ứng Hòa,Thành phố Hà Nội,Việt Nam,20.616111,105.798193
Thị trấn Đại Nghĩa,Huyện Mỹ Đức,Thành phố Hà Nội,Việt Nam,20.685015,105.740627
Xã Đồng Tâm,Huyện Mỹ Đức,Thành phố Hà Nội,Việt Nam,20.804082,105.673997
Xã Thượng Lâm,Huyện Mỹ Đức,Thành phố Hà Nội,Việt Nam,20.793187,105.675468
Xã Tuy Lai,Huyện Mỹ Đức,Thành phố Hà Nội,Việt Nam,20.771102,105.683048
Xã Phúc Lâm,Huyện Mỹ Đức,Thành phố Hà Nội,Việt Nam,20.810706,105.707252
Xã Mỹ Thành,Huyện Mỹ Đức,Thành phố Hà Nội,Việt Nam,20.782056,105.702918
Xã Bột Xuyên,Huyện Mỹ Đức,Thành phố Hà Nội,Việt Nam,20.778023,105.712348
Xã An Mỹ,Huyện Mỹ Đức,Thành phố Hà Nội,Việt Nam,20.753882,105.696394
Xã Hồng Sơn,Huyện Mỹ Đức,Thành phố Hà Nội,Việt Nam,20.731332,105.70296
Xã Lê Thanh,Huyện Mỹ Đức,Thành phố Hà Nội,Việt Nam,20.726003,105.723211
Xã Xuy Xá,Huyện Mỹ Đức,Thành phố Hà Nội,Việt Nam,20.718703,105.73622
Xã Phùng Xá,Huyện Mỹ Đức,Thành phố Hà Nội,Việt Nam,20.723966,105.763063
Xã Phù Lưu Tế,Huyện Mỹ Đức,Thành phố Hà Nội,Việt Nam,20.698717,105.745275
Xã Đại Hưng,Huyện Mỹ Đức,Thành phố Hà Nội,Việt Nam,20.665918,105.762669
Xã Vạn Kim,Huyện Mỹ Đức,Thành phố Hà Nội,Việt Nam,20.652679,105.785351
Xã Đốc Tín,Huyện Mỹ Đức,Thành phố Hà Nội,Việt Nam,20.630928,105.781235
Xã Hương Sơn,Huyện Mỹ Đức,Thành phố Hà Nội,Việt Nam,20.59689,105.770158
Xã Hùng Tiến,Huyện Mỹ Đức,Thành phố Hà Nội,Việt Nam,20.640692,105.764982
Xã An Tiến,Huyện Mỹ Đức,Thành phố Hà Nội,Việt Nam,20.658225,105.735072
Xã Hợp Tiến,Huyện Mỹ Đức,Thành phố Hà Nội,Việt Nam,20.682426,105.693514
Xã Hợp Thanh,Huyện Mỹ Đức,Thành phố Hà Nội,Việt Nam,20.669941,105.702302
Xã An Phú,Huyện Mỹ Đức,Thành phố Hà Nội,Việt Nam,20.633432,105.696736
Phường Quang Trung,Thành phố Hà Giang,Tỉnh Hà Giang,Việt Nam,22.845726,104.999213
Phường Trần Phú,Thành phố Hà Giang,Tỉnh Hà Giang,Việt Nam,22.829626,104.989404
Phường Ngọc Hà,Thành phố Hà Giang,Tỉnh Hà Giang,Việt Nam,22.836689,105.012238
Phường Nguyễn Trãi,Thành phố Hà Giang,Tỉnh Hà Giang,Việt Nam,22.824863,104.982862
Phường Minh Khai,Thành phố Hà Giang,Tỉnh Hà Giang,Việt Nam,22.82019,104.988066
Xã Ngọc Đường,Thành phố Hà Giang,Tỉnh Hà Giang,Việt Nam,22.845319,105.023161
Xã Phương Độ,Thành phố Hà Giang,Tỉnh Hà Giang,Việt Nam,22.829747,104.951159
Xã Phương Thiện,Thành phố Hà Giang,Tỉnh Hà Giang,Việt Nam,22.796242,104.97355
Thị trấn Phó Bảng,Huyện Đồng Văn,Tỉnh Hà Giang,Việt Nam,23.253097,105.185123
Xã Lũng Cú,Huyện Đồng Văn,Tỉnh Hà Giang,Việt Nam,23.361111,105.318437
Xã Má Lé,Huyện Đồng Văn,Tỉnh Hà Giang,Việt Nam,23.310087,105.298893
Thị trấn Đồng Văn,Huyện Đồng Văn,Tỉnh Hà Giang,Việt Nam,23.278298,105.361521
Xã Lũng Táo,Huyện Đồng Văn,Tỉnh Hà Giang,Việt Nam,23.280369,105.274832
Xã Phố Là,Huyện Đồng Văn,Tỉnh Hà Giang,Việt Nam,23.268,105.162216
Xã Thài Phìn Tủng,Huyện Đồng Văn,Tỉnh Hà Giang,Việt Nam,23.255316,105.287716
Xã Sủng Là,Huyện Đồng Văn,Tỉnh Hà Giang,Việt Nam,23.232602,105.216268
Xã Xà Phìn,Huyện Đồng Văn,Tỉnh Hà Giang,Việt Nam,23.251483,105.263964
Xã Tả Phìn,Huyện Đồng Văn,Tỉnh Hà Giang,Việt Nam,23.241451,105.31766
Xã Tả Lủng,Huyện Đồng Văn,Tỉnh Hà Giang,Việt Nam,23.250218,105.358114
Xã Phố Cáo,Huyện Đồng Văn,Tỉnh Hà Giang,Việt Nam,23.200823,105.175874
Xã Sính Lủng,Huyện Đồng Văn,Tỉnh Hà Giang,Việt Nam,23.241738,105.289064
Xã Sảng Tủng,Huyện Đồng Văn,Tỉnh Hà Giang,Việt Nam,23.213479,105.243981
Xã Lũng Thầu,Huyện Đồng Văn,Tỉnh Hà Giang,Việt Nam,23.18624,105.176145
Xã Hố Quáng Phìn,Huyện Đồng Văn,Tỉnh Hà Giang,Việt Nam,23.171572,105.265885
Xã Vần Chải,Huyện Đồng Văn,Tỉnh Hà Giang,Việt Nam,23.153029,105.195423
Xã Lũng Phìn,Huyện Đồng Văn,Tỉnh Hà Giang,Việt Nam,23.147688,105.297203
Xã Sủng Trái,Huyện Đồng Văn,Tỉnh Hà Giang,Việt Nam,23.115006,105.243221
Thị trấn Mèo Vạc,Huyện Mèo Vạc,Tỉnh Hà Giang,Việt Nam,23.165954,105.410274
Xã Thượng Phùng,Huyện Mèo Vạc,Tỉnh Hà Giang,Việt Nam,23.266398,105.444774
Xã Pải Lủng,Huyện Mèo Vạc,Tỉnh Hà Giang,Việt Nam,23.247759,105.394195
Xã Xín Cái,Huyện Mèo Vạc,Tỉnh Hà Giang,Việt Nam,23.216357,105.458304
Xã Pả Vi,Huyện Mèo Vạc,Tỉnh Hà Giang,Việt Nam,23.214617,105.389589
Xã Giàng Chu Phìn,Huyện Mèo Vạc,Tỉnh Hà Giang,Việt Nam,23.194632,105.451328
Xã Sủng Trà,Huyện Mèo Vạc,Tỉnh Hà Giang,Việt Nam,23.202874,105.308559
Xã Sủng Máng,Huyện Mèo Vạc,Tỉnh Hà Giang,Việt Nam,23.151001,105.307397
Xã Sơn Vĩ,Huyện Mèo Vạc,Tỉnh Hà Giang,Việt Nam,23.154271,105.530199
Xã Tả Lủng,Huyện Mèo Vạc,Tỉnh Hà Giang,Việt Nam,23.168427,105.404393
Xã Cán Chu Phìn,Huyện Mèo Vạc,Tỉnh Hà Giang,Việt Nam,23.156274,105.483453
Xã Lũng Pù,Huyện Mèo Vạc,Tỉnh Hà Giang,Việt Nam,23.12327,105.492932
Xã Lũng Chinh,Huyện Mèo Vạc,Tỉnh Hà Giang,Việt Nam,23.13632,105.328409
Xã Tát Ngà,Huyện Mèo Vạc,Tỉnh Hà Giang,Việt Nam,23.101357,105.422541
Xã Nậm Ban,Huyện Mèo Vạc,Tỉnh Hà Giang,Việt Nam,23.082013,105.356356
Xã Khâu Vai,Huyện Mèo Vạc,Tỉnh Hà Giang,Việt Nam,23.086166,105.48675
Xã Niêm Tòng,Huyện Mèo Vạc,Tỉnh Hà Giang,Việt Nam,23.031279,105.470517
Xã Niêm Sơn,Huyện Mèo Vạc,Tỉnh Hà Giang,Việt Nam,23.039628,105.418448
Thị trấn Yên Minh,Huyện Yên Minh,Tỉnh Hà Giang,Việt Nam,23.117205,105.149123
Xã Thắng Mố,Huyện Yên Minh,Tỉnh Hà Giang,Việt Nam,23.229242,105.091515
Xã Phú Lũng,Huyện Yên Minh,Tỉnh Hà Giang,Việt Nam,23.247992,105.076729
Xã Sủng Tráng,Huyện Yên Minh,Tỉnh Hà Giang,Việt Nam,23.205396,105.130856
Xã Bạch Đích,Huyện Yên Minh,Tỉnh Hà Giang,Việt Nam,23.207579,105.058933
Xã Na Khê,Huyện Yên Minh,Tỉnh Hà Giang,Việt Nam,23.176149,105.008565
Xã Sủng Thài,Huyện Yên Minh,Tỉnh Hà Giang,Việt Nam,23.179886,105.136767
Xã Hữu Vinh,Huyện Yên Minh,Tỉnh Hà Giang,Việt Nam,23.171205,105.149801
Xã Lao Và Chải,Huyện Yên Minh,Tỉnh Hà Giang,Việt Nam,23.116866,105.08159
Xã Mậu Duệ,Huyện Yên Minh,Tỉnh Hà Giang,Việt Nam,23.065592,105.237738
Xã Đông Minh,Huyện Yên Minh,Tỉnh Hà Giang,Việt Nam,23.092329,105.168075
Xã Mậu Long,Huyện Yên Minh,Tỉnh Hà Giang,Việt Nam,23.072375,105.292619
Xã Ngam La,Huyện Yên Minh,Tỉnh Hà Giang,Việt Nam,23.044064,105.197128
Xã Ngọc Long,Huyện Yên Minh,Tỉnh Hà Giang,Việt Nam,22.98417,105.296769
Xã Đường Thượng,Huyện Yên Minh,Tỉnh Hà Giang,Việt Nam,22.97332,105.179438
Xã Lũng Hồ,Huyện Yên Minh,Tỉnh Hà Giang,Việt Nam,22.972448,105.243317
Xã Du Tiến,Huyện Yên Minh,Tỉnh Hà Giang,Việt Nam,22.942082,105.279066
Xã Du Già,Huyện Yên Minh,Tỉnh Hà Giang,Việt Nam,22.931172,105.222906
Thị trấn Tam Sơn,Huyện Quản Bạ,Tỉnh Hà Giang,Việt Nam,23.064857,104.994063
Xã Bát Đại Sơn,Huyện Quản Bạ,Tỉnh Hà Giang,Việt Nam,23.15759,104.966362
Xã Nghĩa Thuận,Huyện Quản Bạ,Tỉnh Hà Giang,Việt Nam,23.146661,104.904378
Xã Cán Tỷ,Huyện Quản Bạ,Tỉnh Hà Giang,Việt Nam,23.113862,105.035642
Xã Cao Mã Pờ,Huyện Quản Bạ,Tỉnh Hà Giang,Việt Nam,23.101424,104.870026
Xã Thanh Vân,Huyện Quản Bạ,Tỉnh Hà Giang,Việt Nam,23.096731,104.970713
Xã Tùng Vài,Huyện Quản Bạ,Tỉnh Hà Giang,Việt Nam,23.071537,104.91371
Xã Đông Hà,Huyện Quản Bạ,Tỉnh Hà Giang,Việt Nam,23.026741,105.042121
Xã Quản Bạ,Huyện Quản Bạ,Tỉnh Hà Giang,Việt Nam,23.054173,105.011193
Xã Lùng Tám,Huyện Quản Bạ,Tỉnh Hà Giang,Việt Nam,23.045599,105.047046
Xã Quyết Tiến,Huyện Quản Bạ,Tỉnh Hà Giang,Việt Nam,23.012456,104.951
Xã Tả Ván,Huyện Quản Bạ,Tỉnh Hà Giang,Việt Nam,23.031564,104.865799
Xã Thái An,Huyện Quản Bạ,Tỉnh Hà Giang,Việt Nam,22.990644,105.120056
Xã Kim Thạch,Huyện Vị Xuyên,Tỉnh Hà Giang,Việt Nam,22.78831,105.047345
Xã Phú Linh,Huyện Vị Xuyên,Tỉnh Hà Giang,Việt Nam,22.751884,105.020413
Xã Kim Linh,Huyện Vị Xuyên,Tỉnh Hà Giang,Việt Nam,22.745895,105.086779
Thị trấn Vị Xuyên,Huyện Vị Xuyên,Tỉnh Hà Giang,Việt Nam,22.667884,104.981814
Thị trấn Nông Trường Việt Lâm,Huyện Vị Xuyên,Tỉnh Hà Giang,Việt Nam,22.627929,104.962054
Xã Minh Tân,Huyện Vị Xuyên,Tỉnh Hà Giang,Việt Nam,22.975764,104.929998
Xã Thuận Hoà,Huyện Vị Xuyên,Tỉnh Hà Giang,Việt Nam,22.904075,105.009253
Xã Tùng Bá,Huyện Vị Xuyên,Tỉnh Hà Giang,Việt Nam,22.876363,105.080098
Xã Thanh Thủy,Huyện Vị Xuyên,Tỉnh Hà Giang,Việt Nam,22.918397,104.863536
Xã Thanh Đức,Huyện Vị Xuyên,Tỉnh Hà Giang,Việt Nam,22.88909,104.82389
Xã Phong Quang,Huyện Vị Xuyên,Tỉnh Hà Giang,Việt Nam,22.867595,104.957424
Xã Xín Chải,Huyện Vị Xuyên,Tỉnh Hà Giang,Việt Nam,22.884538,104.800746
Xã Phương Tiến,Huyện Vị Xuyên,Tỉnh Hà Giang,Việt Nam,22.862574,104.916171
Xã Lao Chải,Huyện Vị Xuyên,Tỉnh Hà Giang,Việt Nam,22.846712,104.777507
Xã Cao Bồ,Huyện Vị Xuyên,Tỉnh Hà Giang,Việt Nam,22.746875,104.905309
Xã Đạo Đức,Huyện Vị Xuyên,Tỉnh Hà Giang,Việt Nam,22.708116,104.976983
Xã Thượng Sơn,Huyện Vị Xuyên,Tỉnh Hà Giang,Việt Nam,22.638128,104.878868
Xã Linh Hồ,Huyện Vị Xuyên,Tỉnh Hà Giang,Việt Nam,22.706239,105.056695
Xã Quảng Ngần,Huyện Vị Xuyên,Tỉnh Hà Giang,Việt Nam,22.648246,104.918009
Xã Việt Lâm,Huyện Vị Xuyên,Tỉnh Hà Giang,Việt Nam,22.643983,104.935836
Xã Ngọc Linh,Huyện Vị Xuyên,Tỉnh Hà Giang,Việt Nam,22.670115,105.019405
Xã Ngọc Minh,Huyện Vị Xuyên,Tỉnh Hà Giang,Việt Nam,22.610145,105.103465
Xã Bạch Ngọc,Huyện Vị Xuyên,Tỉnh Hà Giang,Việt Nam,22.554893,105.062279
Xã Trung Thành,Huyện Vị Xuyên,Tỉnh Hà Giang,Việt Nam,22.587988,104.982493
Xã Minh Sơn,Huyện Bắc Mê,Tỉnh Hà Giang,Việt Nam,22.807962,105.209149
Xã Giáp Trung,Huyện Bắc Mê,Tỉnh Hà Giang,Việt Nam,22.776937,105.273095
Xã Yên Định,Huyện Bắc Mê,Tỉnh Hà Giang,Việt Nam,22.793158,105.145329
Thị trấn Yên Phú,Huyện Bắc Mê,Tỉnh Hà Giang,Việt Nam,22.738445,105.311001
Xã Minh Ngọc,Huyện Bắc Mê,Tỉnh Hà Giang,Việt Nam,22.780972,105.176341
Xã Yên Phong,Huyện Bắc Mê,Tỉnh Hà Giang,Việt Nam,22.775153,105.408192
Xã Lạc Nông,Huyện Bắc Mê,Tỉnh Hà Giang,Việt Nam,22.755977,105.245933
Xã Phú Nam,Huyện Bắc Mê,Tỉnh Hà Giang,Việt Nam,22.732193,105.440046
Xã Yên Cường,Huyện Bắc Mê,Tỉnh Hà Giang,Việt Nam,22.68574,105.371545
Xã Thượng Tân,Huyện Bắc Mê,Tỉnh Hà Giang,Việt Nam,22.700711,105.254092
Xã Đường Âm,Huyện Bắc Mê,Tỉnh Hà Giang,Việt Nam,22.65805,105.476141
Xã Đường Hồng,Huyện Bắc Mê,Tỉnh Hà Giang,Việt Nam,22.639155,105.413179
Xã Phiêng Luông,Huyện Bắc Mê,Tỉnh Hà Giang,Việt Nam,22.629928,105.306074
Thị trấn Vinh Quang,Huyện Hoàng Su Phì,Tỉnh Hà Giang,Việt Nam,22.74278,104.680053
Xã Bản Máy,Huyện Hoàng Su Phì,Tỉnh Hà Giang,Việt Nam,22.828976,104.585437
Xã Thàng Tín,Huyện Hoàng Su Phì,Tỉnh Hà Giang,Việt Nam,22.808494,104.649339
Xã Thèn Chu Phìn,Huyện Hoàng Su Phì,Tỉnh Hà Giang,Việt Nam,22.797788,104.708382
Xã Pố Lồ,Huyện Hoàng Su Phì,Tỉnh Hà Giang,Việt Nam,22.794562,104.681878
Xã Bản Phùng,Huyện Hoàng Su Phì,Tỉnh Hà Giang,Việt Nam,22.786592,104.584202
Xã Túng Sán,Huyện Hoàng Su Phì,Tỉnh Hà Giang,Việt Nam,22.767398,104.747797
Xã Chiến Phố,Huyện Hoàng Su Phì,Tỉnh Hà Giang,Việt Nam,22.786955,104.614555
Xã Đản Ván,Huyện Hoàng Su Phì,Tỉnh Hà Giang,Việt Nam,22.775756,104.738753
Xã Tụ Nhân,Huyện Hoàng Su Phì,Tỉnh Hà Giang,Việt Nam,22.766495,104.623119
Xã Tân Tiến,Huyện Hoàng Su Phì,Tỉnh Hà Giang,Việt Nam,22.741948,104.724616
Xã Nàng Đôn,Huyện Hoàng Su Phì,Tỉnh Hà Giang,Việt Nam,22.726038,104.58898
Xã Pờ Ly Ngài,Huyện Hoàng Su Phì,Tỉnh Hà Giang,Việt Nam,22.704038,104.620431
Xã Sán Xả Hồ,Huyện Hoàng Su Phì,Tỉnh Hà Giang,Việt Nam,22.699824,104.64632
Xã Bản Luốc,Huyện Hoàng Su Phì,Tỉnh Hà Giang,Việt Nam,22.694397,104.672494
Xã Ngàm Đăng Vài,Huyện Hoàng Su Phì,Tỉnh Hà Giang,Việt Nam,22.709175,104.714142
Xã Bản Nhùng,Huyện Hoàng Su Phì,Tỉnh Hà Giang,Việt Nam,22.708049,104.754696
Xã Tả Sử Choóng,Huyện Hoàng Su Phì,Tỉnh Hà Giang,Việt Nam,22.676123,104.76676
Xã Nậm Dịch,Huyện Hoàng Su Phì,Tỉnh Hà Giang,Việt Nam,22.666307,104.701748
Xã Hồ Thầu,Huyện Hoàng Su Phì,Tỉnh Hà Giang,Việt Nam,22.630834,104.62896
Xã Nam Sơn,Huyện Hoàng Su Phì,Tỉnh Hà Giang,Việt Nam,22.62639,104.700897
Xã Nậm Tỵ,Huyện Hoàng Su Phì,Tỉnh Hà Giang,Việt Nam,22.604234,104.763229
Xã Thông Nguyên,Huyện Hoàng Su Phì,Tỉnh Hà Giang,Việt Nam,22.565741,104.737729
Xã Nậm Khòa,Huyện Hoàng Su Phì,Tỉnh Hà Giang,Việt Nam,22.572191,104.682606
Thị trấn Cốc Pài,Huyện Xín Mần,Tỉnh Hà Giang,Việt Nam,22.681807,104.463488
Xã Nàn Xỉn,Huyện Xín Mần,Tỉnh Hà Giang,Việt Nam,22.779302,104.552006
Xã Bản Díu,Huyện Xín Mần,Tỉnh Hà Giang,Việt Nam,22.738719,104.556676
Xã Chí Cà,Huyện Xín Mần,Tỉnh Hà Giang,Việt Nam,22.727616,104.448554
Xã Xín Mần,Huyện Xín Mần,Tỉnh Hà Giang,Việt Nam,22.757129,104.506084
Xã Thèn Phàng,Huyện Xín Mần,Tỉnh Hà Giang,Việt Nam,22.716148,104.502086
Xã Trung Thịnh,Huyện Xín Mần,Tỉnh Hà Giang,Việt Nam,22.723196,104.57035
Xã Pà Vầy Sủ,Huyện Xín Mần,Tỉnh Hà Giang,Việt Nam,22.686545,104.377787
Xã Cốc Rế,Huyện Xín Mần,Tỉnh Hà Giang,Việt Nam,22.690658,104.509163
Xã Thu Tà,Huyện Xín Mần,Tỉnh Hà Giang,Việt Nam,22.682877,104.565537
Xã Nàn Ma,Huyện Xín Mần,Tỉnh Hà Giang,Việt Nam,22.679195,104.417259
Xã Tả Nhìu,Huyện Xín Mần,Tỉnh Hà Giang,Việt Nam,22.678208,104.488726
Xã Bản Ngò,Huyện Xín Mần,Tỉnh Hà Giang,Việt Nam,22.640715,104.455849
Xã Chế Là,Huyện Xín Mần,Tỉnh Hà Giang,Việt Nam,22.614641,104.519653
Xã Nấm Dẩn,Huyện Xín Mần,Tỉnh Hà Giang,Việt Nam,22.598312,104.495347
Xã Quảng Nguyên,Huyện Xín Mần,Tỉnh Hà Giang,Việt Nam,22.570375,104.576987
Xã Nà Chì,Huyện Xín Mần,Tỉnh Hà Giang,Việt Nam,22.517942,104.503846
Xã Khuôn Lùng,Huyện Xín Mần,Tỉnh Hà Giang,Việt Nam,22.503261,104.544337
Thị trấn Việt Quang,Huyện Bắc Quang,Tỉnh Hà Giang,Việt Nam,22.411896,104.806124
Thị trấn Vĩnh Tuy,Huyện Bắc Quang,Tỉnh Hà Giang,Việt Nam,22.273516,104.88693
Xã Tân Lập,Huyện Bắc Quang,Tỉnh Hà Giang,Việt Nam,22.563264,104.879992
Xã Tân Thành,Huyện Bắc Quang,Tỉnh Hà Giang,Việt Nam,22.554424,104.900306
Xã Đồng Tiến,Huyện Bắc Quang,Tỉnh Hà Giang,Việt Nam,22.532501,105.039127
Xã Đồng Tâm,Huyện Bắc Quang,Tỉnh Hà Giang,Việt Nam,22.4849,104.90922
Xã Tân Quang,Huyện Bắc Quang,Tỉnh Hà Giang,Việt Nam,22.496119,104.877087
Xã Thượng Bình,Huyện Bắc Quang,Tỉnh Hà Giang,Việt Nam,22.461751,105.040967
Xã Hữu Sản,Huyện Bắc Quang,Tỉnh Hà Giang,Việt Nam,22.412827,105.063525
Xã Kim Ngọc,Huyện Bắc Quang,Tỉnh Hà Giang,Việt Nam,22.430367,104.926858
Xã Việt Vinh,Huyện Bắc Quang,Tỉnh Hà Giang,Việt Nam,22.475507,104.870711
Xã Bằng Hành,Huyện Bắc Quang,Tỉnh Hà Giang,Việt Nam,22.428763,105.027596
Xã Quang Minh,Huyện Bắc Quang,Tỉnh Hà Giang,Việt Nam,22.38633,104.842613
Xã Liên Hiệp,Huyện Bắc Quang,Tỉnh Hà Giang,Việt Nam,22.390073,105.046605
Xã Vô Điếm,Huyện Bắc Quang,Tỉnh Hà Giang,Việt Nam,22.383773,104.940632
Xã Việt Hồng,Huyện Bắc Quang,Tỉnh Hà Giang,Việt Nam,22.366533,104.790882
Xã Hùng An,Huyện Bắc Quang,Tỉnh Hà Giang,Việt Nam,22.332903,104.868616
Xã Đức Xuân,Huyện Bắc Quang,Tỉnh Hà Giang,Việt Nam,22.331697,105.035621
Xã Tiên Kiều,Huyện Bắc Quang,Tỉnh Hà Giang,Việt Nam,22.308013,104.83267
Xã Vĩnh Hảo,Huyện Bắc Quang,Tỉnh Hà Giang,Việt Nam,22.292401,104.861621
Xã Vĩnh Phúc,Huyện Bắc Quang,Tỉnh Hà Giang,Việt Nam,22.241834,104.815653
Xã Đồng Yên,Huyện Bắc Quang,Tỉnh Hà Giang,Việt Nam,22.201785,104.773383
Xã Đông Thành,Huyện Bắc Quang,Tỉnh Hà Giang,Việt Nam,22.212273,104.850992
Xã Xuân Minh,Huyện Quang Bình,Tỉnh Hà Giang,Việt Nam,22.507989,104.727599
Xã Tiên Nguyên,Huyện Quang Bình,Tỉnh Hà Giang,Việt Nam,22.507413,104.68846
Xã Tân Nam,Huyện Quang Bình,Tỉnh Hà Giang,Việt Nam,22.471557,104.58941
Xã Bản Rịa,Huyện Quang Bình,Tỉnh Hà Giang,Việt Nam,22.448082,104.485125
Xã Yên Thành,Huyện Quang Bình,Tỉnh Hà Giang,Việt Nam,22.405056,104.551147
Thị trấn Yên Bình,Huyện Quang Bình,Tỉnh Hà Giang,Việt Nam,22.411178,104.57318
Xã Tân Trịnh,Huyện Quang Bình,Tỉnh Hà Giang,Việt Nam,22.426071,104.717445
Xã Tân Bắc,Huyện Quang Bình,Tỉnh Hà Giang,Việt Nam,22.455181,104.720399
Xã Bằng Lang,Huyện Quang Bình,Tỉnh Hà Giang,Việt Nam,22.364719,104.636981
Xã Yên Hà,Huyện Quang Bình,Tỉnh Hà Giang,Việt Nam,22.345383,104.703719
Xã Hương Sơn,Huyện Quang Bình,Tỉnh Hà Giang,Việt Nam,22.316938,104.758286
Xã Xuân Giang,Huyện Quang Bình,Tỉnh Hà Giang,Việt Nam,22.319234,104.672319
Xã Nà Khương,Huyện Quang Bình,Tỉnh Hà Giang,Việt Nam,22.295891,104.5866
Xã Tiên Yên,Huyện Quang Bình,Tỉnh Hà Giang,Việt Nam,22.281127,104.708461
Xã Vĩ Thượng,Huyện Quang Bình,Tỉnh Hà Giang,Việt Nam,22.252113,104.731356
Phường Sông Hiến,Thành phố Cao Bằng,Tỉnh Cao Bằng,Việt Nam,22.673461,106.242556
Phường Sông Bằng,Thành phố Cao Bằng,Tỉnh Cao Bằng,Việt Nam,22.666704,106.267113
Phường Hợp Giang,Thành phố Cao Bằng,Tỉnh Cao Bằng,Việt Nam,22.667515,106.258057
Phường Tân Giang,Thành phố Cao Bằng,Tỉnh Cao Bằng,Việt Nam,22.650142,106.264278
Phường Ngọc Xuân,Thành phố Cao Bằng,Tỉnh Cao Bằng,Việt Nam,22.679221,106.251795
Phường Đề Thám,Thành phố Cao Bằng,Tỉnh Cao Bằng,Việt Nam,22.68371,106.214866
Phường Hoà Chung,Thành phố Cao Bằng,Tỉnh Cao Bằng,Việt Nam,22.656505,106.254562
Phường Duyệt Trung,Thành phố Cao Bằng,Tỉnh Cao Bằng,Việt Nam,22.615643,106.282929
Xã Vĩnh Quang,Thành phố Cao Bằng,Tỉnh Cao Bằng,Việt Nam,22.666662,106.258804
Xã Hưng Đạo,Thành phố Cao Bằng,Tỉnh Cao Bằng,Việt Nam,22.666662,106.258804
Xã Chu Trinh,Thành phố Cao Bằng,Tỉnh Cao Bằng,Việt Nam,22.666662,106.258804
Thị trấn Pác Miầu,Huyện Bảo Lâm,Tỉnh Cao Bằng,Việt Nam,22.83447,105.493897
Xã Đức Hạnh,Huyện Bảo Lâm,Tỉnh Cao Bằng,Việt Nam,23.044445,105.556964
Xã Lý Bôn,Huyện Bảo Lâm,Tỉnh Cao Bằng,Việt Nam,22.941753,105.550739
Xã Nam Cao,Huyện Bảo Lâm,Tỉnh Cao Bằng,Việt Nam,22.980363,105.413724
Xã Nam Quang,Huyện Bảo Lâm,Tỉnh Cao Bằng,Việt Nam,22.879358,105.500189
Xã Vĩnh Quang,Huyện Bảo Lâm,Tỉnh Cao Bằng,Việt Nam,22.888496,105.596978
Xã Quảng Lâm,Huyện Bảo Lâm,Tỉnh Cao Bằng,Việt Nam,22.783036,105.450578
Xã Thạch Lâm,Huyện Bảo Lâm,Tỉnh Cao Bằng,Việt Nam,22.875652,105.38657
Xã Vĩnh Phong,Huyện Bảo Lâm,Tỉnh Cao Bằng,Việt Nam,22.836535,105.591756
Xã Mông Ân,Huyện Bảo Lâm,Tỉnh Cao Bằng,Việt Nam,22.77908,105.540199
Xã Thái Học,Huyện Bảo Lâm,Tỉnh Cao Bằng,Việt Nam,22.758026,105.471434
Xã Thái Sơn,Huyện Bảo Lâm,Tỉnh Cao Bằng,Việt Nam,22.745001,105.568289
Xã Yên Thổ,Huyện Bảo Lâm,Tỉnh Cao Bằng,Việt Nam,22.677402,105.519119
Thị trấn Bảo Lạc,Huyện Bảo Lạc,Tỉnh Cao Bằng,Việt Nam,22.950808,105.681093
Xã Cốc Pàng,Huyện Bảo Lạc,Tỉnh Cao Bằng,Việt Nam,23.051014,105.56858
Xã Thượng Hà,Huyện Bảo Lạc,Tỉnh Cao Bằng,Việt Nam,22.998011,105.671249
Xã Cô Ba,Huyện Bảo Lạc,Tỉnh Cao Bằng,Việt Nam,22.99058,105.746662
Xã Bảo Toàn,Huyện Bảo Lạc,Tỉnh Cao Bằng,Việt Nam,22.972549,105.612604
Xã Khánh Xuân,Huyện Bảo Lạc,Tỉnh Cao Bằng,Việt Nam,22.957283,105.796276
Xã Xuân Trường,Huyện Bảo Lạc,Tỉnh Cao Bằng,Việt Nam,22.919417,105.84189
Xã Hồng Trị,Huyện Bảo Lạc,Tỉnh Cao Bằng,Việt Nam,22.942612,105.65214
Xã Kim Cúc,Huyện Bảo Lạc,Tỉnh Cao Bằng,Việt Nam,22.865417,105.654848
Xã Phan Thanh,Huyện Bảo Lạc,Tỉnh Cao Bằng,Việt Nam,22.891745,105.748777
Xã Hồng An,Huyện Bảo Lạc,Tỉnh Cao Bằng,Việt Nam,22.858338,105.834946
Xã Hưng Đạo,Huyện Bảo Lạc,Tỉnh Cao Bằng,Việt Nam,22.815988,105.710924
Xã Hưng Thịnh,Huyện Bảo Lạc,Tỉnh Cao Bằng,Việt Nam,22.816873,105.6657
Xã Huy Giáp,Huyện Bảo Lạc,Tỉnh Cao Bằng,Việt Nam,22.805551,105.824666
Xã Đình Phùng,Huyện Bảo Lạc,Tỉnh Cao Bằng,Việt Nam,22.767097,105.785674
Xã Sơn Lập,Huyện Bảo Lạc,Tỉnh Cao Bằng,Việt Nam,22.709242,105.613398
Xã Sơn Lộ,Huyện Bảo Lạc,Tỉnh Cao Bằng,Việt Nam,22.755674,105.686154
Thị trấn Thông Nông,Huyện Hà Quảng,Tỉnh Cao Bằng,Việt Nam,22.896206,106.092427
Xã Cần Yên,Huyện Hà Quảng,Tỉnh Cao Bằng,Việt Nam,22.896206,106.092427
Xã Cần Nông,Huyện Hà Quảng,Tỉnh Cao Bằng,Việt Nam,22.896206,106.092427
Xã Lương Thông,Huyện Hà Quảng,Tỉnh Cao Bằng,Việt Nam,22.896206,106.092427
Xã Đa Thông,Huyện Hà Quảng,Tỉnh Cao Bằng,Việt Nam,22.896206,106.092427
Xã Ngọc Động,Huyện Hà Quảng,Tỉnh Cao Bằng,Việt Nam,22.896206,106.092427
Xã Yên Sơn,Huyện Hà Quảng,Tỉnh Cao Bằng,Việt Nam,22.896206,106.092427
Xã Lương Can,Huyện Hà Quảng,Tỉnh Cao Bằng,Việt Nam,22.896206,106.092427
Xã Thanh Long,Huyện Hà Quảng,Tỉnh Cao Bằng,Việt Nam,22.896206,106.092427
Thị trấn Xuân Hòa,Huyện Hà Quảng,Tỉnh Cao Bằng,Việt Nam,22.901292,106.077058
Xã Lũng Nặm,Huyện Hà Quảng,Tỉnh Cao Bằng,Việt Nam,22.953591,106.097068
Xã Trường Hà,Huyện Hà Quảng,Tỉnh Cao Bằng,Việt Nam,22.979615,106.029948
Xã Cải Viên,Huyện Hà Quảng,Tỉnh Cao Bằng,Việt Nam,22.963585,106.186904
Xã Nội Thôn,Huyện Hà Quảng,Tỉnh Cao Bằng,Việt Nam,22.948568,106.174299
Xã Tổng Cọt,Huyện Hà Quảng,Tỉnh Cao Bằng,Việt Nam,22.920249,106.231829
Xã Sóc Hà,Huyện Hà Quảng,Tỉnh Cao Bằng,Việt Nam,22.919974,105.99218
Xã Thượng Thôn,Huyện Hà Quảng,Tỉnh Cao Bằng,Việt Nam,22.914357,106.151062
Xã Hồng Sỹ,Huyện Hà Quảng,Tỉnh Cao Bằng,Việt Nam,22.896206,106.092427
Xã Quý Quân,Huyện Hà Quảng,Tỉnh Cao Bằng,Việt Nam,22.867038,106.015052
Xã Mã Ba,Huyện Hà Quảng,Tỉnh Cao Bằng,Việt Nam,22.860075,106.204237
Xã Ngọc Đào,Huyện Hà Quảng,Tỉnh Cao Bằng,Việt Nam,22.896206,106.092427
Thị trấn Trà Lĩnh,Huyện Trùng Khánh,Tỉnh Cao Bằng,Việt Nam,22.836554,106.526194
Xã Tri Phương,Huyện Trùng Khánh,Tỉnh Cao Bằng,Việt Nam,22.836554,106.526194
Xã Quang Hán,Huyện Trùng Khánh,Tỉnh Cao Bằng,Việt Nam,22.836554,106.526194
Xã Xuân Nội,Huyện Trùng Khánh,Tỉnh Cao Bằng,Việt Nam,22.836554,106.526194
Xã Quang Trung,Huyện Trùng Khánh,Tỉnh Cao Bằng,Việt Nam,22.671282,106.307747
Xã Quang Vinh,Huyện Trùng Khánh,Tỉnh Cao Bằng,Việt Nam,22.836554,106.526194
Xã Cao Chương,Huyện Trùng Khánh,Tỉnh Cao Bằng,Việt Nam,22.836554,106.526194
Thị trấn Trùng Khánh,Huyện Trùng Khánh,Tỉnh Cao Bằng,Việt Nam,22.836554,106.526194
Xã Ngọc Khê,Huyện Trùng Khánh,Tỉnh Cao Bằng,Việt Nam,22.861618,106.556974
Xã Ngọc Côn,Huyện Trùng Khánh,Tỉnh Cao Bằng,Việt Nam,22.938474,106.537699
Xã Phong Nậm,Huyện Trùng Khánh,Tỉnh Cao Bằng,Việt Nam,22.885764,106.503283
Xã Đình Phong,Huyện Trùng Khánh,Tỉnh Cao Bằng,Việt Nam,22.85161,106.631258
Xã Đàm Thuỷ,Huyện Trùng Khánh,Tỉnh Cao Bằng,Việt Nam,22.848782,106.697471
Xã Khâm Thành,Huyện Trùng Khánh,Tỉnh Cao Bằng,Việt Nam,22.854881,106.50041
Xã Chí Viễn,Huyện Trùng Khánh,Tỉnh Cao Bằng,Việt Nam,22.823836,106.623154
Xã Lăng Hiếu,Huyện Trùng Khánh,Tỉnh Cao Bằng,Việt Nam,22.854863,106.468892
Xã Phong Châu,Huyện Trùng Khánh,Tỉnh Cao Bằng,Việt Nam,22.839166,106.578668
Xã Trung Phúc,Huyện Trùng Khánh,Tỉnh Cao Bằng,Việt Nam,22.798428,106.474075
Xã Cao Thăng,Huyện Trùng Khánh,Tỉnh Cao Bằng,Việt Nam,22.788465,106.548383
Xã Đức Hồng,Huyện Trùng Khánh,Tỉnh Cao Bằng,Việt Nam,22.786755,106.505731
Xã Đoài Dương,Huyện Trùng Khánh,Tỉnh Cao Bằng,Việt Nam,22.836554,106.526194
Xã Minh Long,Huyện Hạ Lang,Tỉnh Cao Bằng,Việt Nam,22.810145,106.762386
Xã Lý Quốc,Huyện Hạ Lang,Tỉnh Cao Bằng,Việt Nam,22.781174,106.775824
Xã Thắng Lợi,Huyện Hạ Lang,Tỉnh Cao Bằng,Việt Nam,22.741055,106.710992
Xã Đồng Loan,Huyện Hạ Lang,Tỉnh Cao Bằng,Việt Nam,22.767412,106.7255
Xã Đức Quang,Huyện Hạ Lang,Tỉnh Cao Bằng,Việt Nam,22.746414,106.640915
Xã Kim Loan,Huyện Hạ Lang,Tỉnh Cao Bằng,Việt Nam,22.742149,106.616937
Xã Quang Long,Huyện Hạ Lang,Tỉnh Cao Bằng,Việt Nam,22.694602,106.704714
Xã An Lạc,Huyện Hạ Lang,Tỉnh Cao Bằng,Việt Nam,22.710415,106.628663
Thị trấn Thanh Nhật,Huyện Hạ Lang,Tỉnh Cao Bằng,Việt Nam,22.686771,106.669668
Xã Vinh Quý,Huyện Hạ Lang,Tỉnh Cao Bằng,Việt Nam,22.653468,106.637524
Xã Thống Nhất,Huyện Hạ Lang,Tỉnh Cao Bằng,Việt Nam,22.698782,106.673168
Xã Cô Ngân,Huyện Hạ Lang,Tỉnh Cao Bằng,Việt Nam,22.621376,106.626828
Xã Thị Hoa,Huyện Hạ Lang,Tỉnh Cao Bằng,Việt Nam,22.595502,106.706629
Xã Quốc Toản,Huyện Quảng Hòa,Tỉnh Cao Bằng,Việt Nam,22.736122,106.336437
Thị trấn Quảng Uyên,Huyện Quảng Hòa,Tỉnh Cao Bằng,Việt Nam,22.693291,106.442882
Xã Phi Hải,Huyện Quảng Hòa,Tỉnh Cao Bằng,Việt Nam,22.757725,106.38909
Xã Quảng Hưng,Huyện Quảng Hòa,Tỉnh Cao Bằng,Việt Nam,22.755748,106.45964
Xã Độc Lập,Huyện Quảng Hòa,Tỉnh Cao Bằng,Việt Nam,22.704732,106.479612
Xã Cai Bộ,Huyện Quảng Hòa,Tỉnh Cao Bằng,Việt Nam,22.678028,106.540143
Xã Phúc Sen,Huyện Quảng Hòa,Tỉnh Cao Bằng,Việt Nam,22.685478,106.406829
Xã Chí Thảo,Huyện Quảng Hòa,Tỉnh Cao Bằng,Việt Nam,22.690452,106.447283
Xã Tự Do,Huyện Quảng Hòa,Tỉnh Cao Bằng,Việt Nam,22.656055,106.404704
Xã Hồng Quang,Huyện Quảng Hòa,Tỉnh Cao Bằng,Việt Nam,22.617836,106.494267
Xã Ngọc Động,Huyện Quảng Hòa,Tỉnh Cao Bằng,Việt Nam,22.616027,106.390648
Xã Hạnh Phúc,Huyện Quảng Hòa,Tỉnh Cao Bằng,Việt Nam,22.58784,106.435292
Thị trấn Tà Lùng,Huyện Quảng Hòa,Tỉnh Cao Bằng,Việt Nam,22.476374,106.578431
Xã Bế Văn Đàn,Huyện Quảng Hòa,Tỉnh Cao Bằng,Việt Nam,22.66385,106.590331
Xã Cách Linh,Huyện Quảng Hòa,Tỉnh Cao Bằng,Việt Nam,22.575189,106.545852
Xã Đại Sơn,Huyện Quảng Hòa,Tỉnh Cao Bằng,Việt Nam,22.554677,106.553053
Xã Tiên Thành,Huyện Quảng Hòa,Tỉnh Cao Bằng,Việt Nam,22.534646,106.443227
Thị trấn Hoà Thuận,Huyện Quảng Hòa,Tỉnh Cao Bằng,Việt Nam,22.531201,106.515055
Xã Mỹ Hưng,Huyện Quảng Hòa,Tỉnh Cao Bằng,Việt Nam,22.462752,106.538804
Thị trấn Nước Hai,Huyện Hoà An,Tỉnh Cao Bằng,Việt Nam,22.735793,106.155893
Xã Dân Chủ,Huyện Hoà An,Tỉnh Cao Bằng,Việt Nam,22.850552,106.064739
Xã Nam Tuấn,Huyện Hoà An,Tỉnh Cao Bằng,Việt Nam,22.79465,106.109994
Xã Đại Tiến,Huyện Hoà An,Tỉnh Cao Bằng,Việt Nam,22.773235,106.199318
Xã Đức Long,Huyện Hoà An,Tỉnh Cao Bằng,Việt Nam,22.749702,106.14025
Xã Ngũ Lão,Huyện Hoà An,Tỉnh Cao Bằng,Việt Nam,22.73126,106.246585
Xã Trương Lương,Huyện Hoà An,Tỉnh Cao Bằng,Việt Nam,22.727559,106.070646
Xã Hồng Việt,Huyện Hoà An,Tỉnh Cao Bằng,Việt Nam,22.729304,106.149541
Xã Hoàng Tung,Huyện Hoà An,Tỉnh Cao Bằng,Việt Nam,22.666322,106.18015
Xã Nguyễn Huệ,Huyện Hoà An,Tỉnh Cao Bằng,Việt Nam,22.714477,106.322682
Xã Quang Trung,Huyện Hoà An,Tỉnh Cao Bằng,Việt Nam,22.671282,106.307747
Xã Bạch Đằng,Huyện Hoà An,Tỉnh Cao Bằng,Việt Nam,22.599678,106.17714
Xã Bình Dương,Huyện Hoà An,Tỉnh Cao Bằng,Việt Nam,22.621987,106.140248
Xã Lê Chung,Huyện Hoà An,Tỉnh Cao Bằng,Việt Nam,22.612906,106.246193
Xã Hồng Nam,Huyện Hoà An,Tỉnh Cao Bằng,Việt Nam,22.556022,106.380352
Thị trấn Nguyên Bình,Huyện Nguyên Bình,Tỉnh Cao Bằng,Việt Nam,22.650202,105.959937
Thị trấn Tĩnh Túc,Huyện Nguyên Bình,Tỉnh Cao Bằng,Việt Nam,22.649493,105.889268
Xã Yên Lạc,Huyện Nguyên Bình,Tỉnh Cao Bằng,Việt Nam,22.76526,105.867488
Xã Triệu Nguyên,Huyện Nguyên Bình,Tỉnh Cao Bằng,Việt Nam,22.739984,105.894553
Xã Ca Thành,Huyện Nguyên Bình,Tỉnh Cao Bằng,Việt Nam,22.709131,105.844637
Xã Vũ Nông,Huyện Nguyên Bình,Tỉnh Cao Bằng,Việt Nam,22.668458,105.876976
Xã Minh Tâm,Huyện Nguyên Bình,Tỉnh Cao Bằng,Việt Nam,22.681912,106.089836
Xã Thể Dục,Huyện Nguyên Bình,Tỉnh Cao Bằng,Việt Nam,22.652168,105.931984
Xã Mai Long,Huyện Nguyên Bình,Tỉnh Cao Bằng,Việt Nam,22.643068,105.787709
Xã Vũ Minh,Huyện Nguyên Bình,Tỉnh Cao Bằng,Việt Nam,22.650202,105.959937
Xã Hoa Thám,Huyện Nguyên Bình,Tỉnh Cao Bằng,Việt Nam,22.592716,106.082115
Xã Phan Thanh,Huyện Nguyên Bình,Tỉnh Cao Bằng,Việt Nam,22.625549,105.831253
Xã Quang Thành,Huyện Nguyên Bình,Tỉnh Cao Bằng,Việt Nam,22.610011,105.914436
Xã Tam Kim,Huyện Nguyên Bình,Tỉnh Cao Bằng,Việt Nam,22.601542,105.992513
Xã Thành Công,Huyện Nguyên Bình,Tỉnh Cao Bằng,Việt Nam,22.564168,105.857463
Xã Thịnh Vượng,Huyện Nguyên Bình,Tỉnh Cao Bằng,Việt Nam,22.55461,106.138279
Xã Hưng Đạo,Huyện Nguyên Bình,Tỉnh Cao Bằng,Việt Nam,22.555872,105.957562
Thị trấn Đông Khê,Huyện Thạch An,Tỉnh Cao Bằng,Việt Nam,22.429511,106.431681
Xã Canh Tân,Huyện Thạch An,Tỉnh Cao Bằng,Việt Nam,22.557889,106.252063
Xã Kim Đồng,Huyện Thạch An,Tỉnh Cao Bằng,Việt Nam,22.540263,106.328531
Xã Minh Khai,Huyện Thạch An,Tỉnh Cao Bằng,Việt Nam,22.511454,106.177813
Xã Đức Thông,Huyện Thạch An,Tỉnh Cao Bằng,Việt Nam,22.46286,106.283566
Xã Thái Cường,Huyện Thạch An,Tỉnh Cao Bằng,Việt Nam,22.485816,106.362096
Xã Vân Trình,Huyện Thạch An,Tỉnh Cao Bằng,Việt Nam,22.484864,106.397348
Xã Thụy Hùng,Huyện Thạch An,Tỉnh Cao Bằng,Việt Nam,22.482385,106.48815
Xã Quang Trọng,Huyện Thạch An,Tỉnh Cao Bằng,Việt Nam,22.438873,106.15318
Xã Trọng Con,Huyện Thạch An,Tỉnh Cao Bằng,Việt Nam,22.419435,106.361106
Xã Lê Lai,Huyện Thạch An,Tỉnh Cao Bằng,Việt Nam,22.430668,106.440525
Xã Đức Long,Huyện Thạch An,Tỉnh Cao Bằng,Việt Nam,22.445143,106.527696
Xã Lê Lợi,Huyện Thạch An,Tỉnh Cao Bằng,Việt Nam,22.396356,106.474219
Xã Đức Xuân,Huyện Thạch An,Tỉnh Cao Bằng,Việt Nam,22.394571,106.431606
Phường Nguyễn Thị Minh Khai,Thành Phố Bắc Kạn,Tỉnh Bắc Kạn,Việt Nam,22.165234,105.843784
Phường Sông Cầu,Thành Phố Bắc Kạn,Tỉnh Bắc Kạn,Việt Nam,22.145983,105.816109
Phường Đức Xuân,Thành Phố Bắc Kạn,Tỉnh Bắc Kạn,Việt Nam,22.144852,105.83775
Phường Phùng Chí Kiên,Thành Phố Bắc Kạn,Tỉnh Bắc Kạn,Việt Nam,22.138932,105.830037
Phường Huyền Tụng,Thành Phố Bắc Kạn,Tỉnh Bắc Kạn,Việt Nam,22.15932,105.846209
Xã Dương Quang,Thành Phố Bắc Kạn,Tỉnh Bắc Kạn,Việt Nam,22.152939,105.823458
Xã Nông Thượng,Thành Phố Bắc Kạn,Tỉnh Bắc Kạn,Việt Nam,22.122936,105.815281
Phường Xuất Hóa,Thành Phố Bắc Kạn,Tỉnh Bắc Kạn,Việt Nam,22.097519,105.876184
Xã Bằng Thành,Huyện Pác Nặm,Tỉnh Bắc Kạn,Việt Nam,22.684725,105.715231
Xã Nhạn Môn,Huyện Pác Nặm,Tỉnh Bắc Kạn,Việt Nam,22.664443,105.621995
Xã Bộc Bố,Huyện Pác Nặm,Tỉnh Bắc Kạn,Việt Nam,22.612057,105.667074
Xã Công Bằng,Huyện Pác Nặm,Tỉnh Bắc Kạn,Việt Nam,22.613099,105.567824
Xã Giáo Hiệu,Huyện Pác Nặm,Tỉnh Bắc Kạn,Việt Nam,22.612237,105.620624
Xã Xuân La,Huyện Pác Nặm,Tỉnh Bắc Kạn,Việt Nam,22.580017,105.697415
Xã An Thắng,Huyện Pác Nặm,Tỉnh Bắc Kạn,Việt Nam,22.581858,105.748767
Xã Cổ Linh,Huyện Pác Nặm,Tỉnh Bắc Kạn,Việt Nam,22.564122,105.623264
Xã Nghiên Loan,Huyện Pác Nặm,Tỉnh Bắc Kạn,Việt Nam,22.510835,105.713158
Xã Cao Tân,Huyện Pác Nặm,Tỉnh Bắc Kạn,Việt Nam,22.519204,105.647868
Thị trấn Chợ Rã,Huyện Ba Bể,Tỉnh Bắc Kạn,Việt Nam,22.45134,105.722979
Xã Bành Trạch,Huyện Ba Bể,Tỉnh Bắc Kạn,Việt Nam,22.483333,105.766667
Xã Phúc Lộc,Huyện Ba Bể,Tỉnh Bắc Kạn,Việt Nam,22.467991,105.828491
Xã Hà Hiệu,Huyện Ba Bể,Tỉnh Bắc Kạn,Việt Nam,22.433333,105.85
Xã Cao Thượng,Huyện Ba Bể,Tỉnh Bắc Kạn,Việt Nam,22.480601,105.657602
Xã Khang Ninh,Huyện Ba Bể,Tỉnh Bắc Kạn,Việt Nam,22.422928,105.641612
Xã Nam Mẫu,Huyện Ba Bể,Tỉnh Bắc Kạn,Việt Nam,22.418428,105.601011
Xã Thượng Giáo,Huyện Ba Bể,Tỉnh Bắc Kạn,Việt Nam,22.438897,105.722236
Xã Địa Linh,Huyện Ba Bể,Tỉnh Bắc Kạn,Việt Nam,22.415884,105.751228
Xã Yến Dương,Huyện Ba Bể,Tỉnh Bắc Kạn,Việt Nam,22.384542,105.773961
Xã Chu Hương,Huyện Ba Bể,Tỉnh Bắc Kạn,Việt Nam,22.382052,105.818013
Xã Quảng Khê,Huyện Ba Bể,Tỉnh Bắc Kạn,Việt Nam,22.342125,105.689152
Xã Mỹ Phương,Huyện Ba Bể,Tỉnh Bắc Kạn,Việt Nam,22.341603,105.837616
Xã Hoàng Trĩ,Huyện Ba Bể,Tỉnh Bắc Kạn,Việt Nam,22.334946,105.657595
Xã Đồng Phúc,Huyện Ba Bể,Tỉnh Bắc Kạn,Việt Nam,22.310666,105.730476
Thị trấn Nà Phặc,Huyện Ngân Sơn,Tỉnh Bắc Kạn,Việt Nam,22.380315,105.897221
Xã Thượng Ân,Huyện Ngân Sơn,Tỉnh Bắc Kạn,Việt Nam,22.480612,105.988623
Xã Bằng Vân,Huyện Ngân Sơn,Tỉnh Bắc Kạn,Việt Nam,22.474164,106.054006
Xã Cốc Đán,Huyện Ngân Sơn,Tỉnh Bắc Kạn,Việt Nam,22.498667,105.968509
Xã Trung Hoà,Huyện Ngân Sơn,Tỉnh Bắc Kạn,Việt Nam,22.423908,105.910818
Xã Đức Vân,Huyện Ngân Sơn,Tỉnh Bắc Kạn,Việt Nam,22.450562,106.034754
Thị trấn Vân Tùng,Huyện Ngân Sơn,Tỉnh Bắc Kạn,Việt Nam,22.431249,105.996447
Xã Thượng Quan,Huyện Ngân Sơn,Tỉnh Bắc Kạn,Việt Nam,22.379834,105.98222
Xã Hiệp Lực,Huyện Ngân Sơn,Tỉnh Bắc Kạn,Việt Nam,22.314854,105.950656
Xã Thuần Mang,Huyện Ngân Sơn,Tỉnh Bắc Kạn,Việt Nam,22.339729,106.000182
Thị trấn Phủ Thông,Huyện Bạch Thông,Tỉnh Bắc Kạn,Việt Nam,22.273137,105.879434
Xã Vi Hương,Huyện Bạch Thông,Tỉnh Bắc Kạn,Việt Nam,22.283797,105.862641
Xã Sĩ Bình,Huyện Bạch Thông,Tỉnh Bắc Kạn,Việt Nam,22.254207,105.92612
Xã Vũ Muộn,Huyện Bạch Thông,Tỉnh Bắc Kạn,Việt Nam,22.247522,105.963919
Xã Đôn Phong,Huyện Bạch Thông,Tỉnh Bắc Kạn,Việt Nam,22.172065,105.766515
Xã Lục Bình,Huyện Bạch Thông,Tỉnh Bắc Kạn,Việt Nam,22.240088,105.842286
Xã Tân Tú,Huyện Bạch Thông,Tỉnh Bắc Kạn,Việt Nam,22.235143,105.867331
Xã Nguyên Phúc,Huyện Bạch Thông,Tỉnh Bắc Kạn,Việt Nam,22.206327,105.90238
Xã Cao Sơn,Huyện Bạch Thông,Tỉnh Bắc Kạn,Việt Nam,22.157371,105.971479
Xã Quân Hà,Huyện Bạch Thông,Tỉnh Bắc Kạn,Việt Nam,22.235143,105.867331
Xã Cẩm Giàng,Huyện Bạch Thông,Tỉnh Bắc Kạn,Việt Nam,22.20333,105.872229
Xã Mỹ Thanh,Huyện Bạch Thông,Tỉnh Bắc Kạn,Việt Nam,22.149166,105.911741
Xã Dương Phong,Huyện Bạch Thông,Tỉnh Bắc Kạn,Việt Nam,22.11139,105.737745
Xã Quang Thuận,Huyện Bạch Thông,Tỉnh Bắc Kạn,Việt Nam,22.124266,105.7679
Thị trấn Bằng Lũng,Huyện Chợ Đồn,Tỉnh Bắc Kạn,Việt Nam,22.156877,105.596234
Xã Xuân Lạc,Huyện Chợ Đồn,Tỉnh Bắc Kạn,Việt Nam,22.352384,105.543384
Xã Nam Cường,Huyện Chợ Đồn,Tỉnh Bắc Kạn,Việt Nam,22.375538,105.603091
Xã Đồng Lạc,Huyện Chợ Đồn,Tỉnh Bắc Kạn,Việt Nam,22.304221,105.576052
Xã Tân Lập,Huyện Chợ Đồn,Tỉnh Bắc Kạn,Việt Nam,22.285938,105.602379
Xã Bản Thi,Huyện Chợ Đồn,Tỉnh Bắc Kạn,Việt Nam,22.237774,105.499769
Xã Quảng Bạch,Huyện Chợ Đồn,Tỉnh Bắc Kạn,Việt Nam,22.27699,105.574534
Xã Bằng Phúc,Huyện Chợ Đồn,Tỉnh Bắc Kạn,Việt Nam,22.275209,105.686247
Xã Yên Thịnh,Huyện Chợ Đồn,Tỉnh Bắc Kạn,Việt Nam,22.187112,105.496533
Xã Yên Thượng,Huyện Chợ Đồn,Tỉnh Bắc Kạn,Việt Nam,22.128355,105.546624
Xã Phương Viên,Huyện Chợ Đồn,Tỉnh Bắc Kạn,Việt Nam,22.175544,105.646533
Xã Ngọc Phái,Huyện Chợ Đồn,Tỉnh Bắc Kạn,Việt Nam,22.182129,105.576762
Xã Đồng Thắng,Huyện Chợ Đồn,Tỉnh Bắc Kạn,Việt Nam,22.160608,105.592848
Xã Lương Bằng,Huyện Chợ Đồn,Tỉnh Bắc Kạn,Việt Nam,22.088772,105.504313
Xã Bằng Lãng,Huyện Chợ Đồn,Tỉnh Bắc Kạn,Việt Nam,22.122089,105.573109
Xã Đại Sảo,Huyện Chợ Đồn,Tỉnh Bắc Kạn,Việt Nam,22.117392,105.629575
Xã Nghĩa Tá,Huyện Chợ Đồn,Tỉnh Bắc Kạn,Việt Nam,22.073268,105.538017
Xã Yên Mỹ,Huyện Chợ Đồn,Tỉnh Bắc Kạn,Việt Nam,22.055904,105.690927
Xã Bình Trung,Huyện Chợ Đồn,Tỉnh Bắc Kạn,Việt Nam,21.968937,105.562993
Xã Yên Phong,Huyện Chợ Đồn,Tỉnh Bắc Kạn,Việt Nam,22.160608,105.592848
Thị trấn Đồng Tâm,Huyện Chợ Mới,Tỉnh Bắc Kạn,Việt Nam,21.979765,105.920624
Xã Tân Sơn,Huyện Chợ Mới,Tỉnh Bắc Kạn,Việt Nam,22.080659,105.980169
Xã Thanh Vận,Huyện Chợ Mới,Tỉnh Bắc Kạn,Việt Nam,22.056474,105.791177
Xã Mai Lạp,Huyện Chợ Mới,Tỉnh Bắc Kạn,Việt Nam,22.074309,105.737138
Xã Hoà Mục,Huyện Chợ Mới,Tỉnh Bắc Kạn,Việt Nam,22.060299,105.837782
Xã Thanh Mai,Huyện Chợ Mới,Tỉnh Bắc Kạn,Việt Nam,22.04076,105.772645
Xã Cao Kỳ,Huyện Chợ Mới,Tỉnh Bắc Kạn,Việt Nam,22.031719,105.83865
Xã Nông Hạ,Huyện Chợ Mới,Tỉnh Bắc Kạn,Việt Nam,21.983664,105.829125
Xã Yên Cư,Huyện Chợ Mới,Tỉnh Bắc Kạn,Việt Nam,21.977702,105.967477
Xã Thanh Thịnh,Huyện Chợ Mới,Tỉnh Bắc Kạn,Việt Nam,21.979765,105.920624
Xã Yên Hân,Huyện Chợ Mới,Tỉnh Bắc Kạn,Việt Nam,21.962622,105.905572
Xã Như Cố,Huyện Chợ Mới,Tỉnh Bắc Kạn,Việt Nam,21.914798,105.857099
Xã Bình Văn,Huyện Chợ Mới,Tỉnh Bắc Kạn,Việt Nam,21.913797,105.887406
Xã Quảng Chu,Huyện Chợ Mới,Tỉnh Bắc Kạn,Việt Nam,21.856162,105.817838
Xã Văn Vũ,Huyện Na Rì,Tỉnh Bắc Kạn,Việt Nam,22.101017,105.979727
Xã Văn Lang,Huyện Na Rì,Tỉnh Bắc Kạn,Việt Nam,22.101017,105.979727
Xã Lương Thượng,Huyện Na Rì,Tỉnh Bắc Kạn,Việt Nam,22.280015,106.076996
Xã Kim Hỷ,Huyện Na Rì,Tỉnh Bắc Kạn,Việt Nam,22.252024,105.986049
Xã Cường Lợi,Huyện Na Rì,Tỉnh Bắc Kạn,Việt Nam,22.270568,106.212164
Thị trấn Yến Lạc,Huyện Na Rì,Tỉnh Bắc Kạn,Việt Nam,22.237823,106.184543
Xã Kim Lư,Huyện Na Rì,Tỉnh Bắc Kạn,Việt Nam,22.236378,106.202317
Xã Sơn Thành,Huyện Na Rì,Tỉnh Bắc Kạn,Việt Nam,22.204611,106.173894
Xã Văn Minh,Huyện Na Rì,Tỉnh Bắc Kạn,Việt Nam,22.167717,106.113053
Xã Côn Minh,Huyện Na Rì,Tỉnh Bắc Kạn,Việt Nam,22.103059,105.978277
Xã Cư Lễ,Huyện Na Rì,Tỉnh Bắc Kạn,Việt Nam,22.166667,106.133333
Xã Trần Phú,Huyện Na Rì,Tỉnh Bắc Kạn,Việt Nam,22.101017,105.979727
Xã Quang Phong,Huyện Na Rì,Tỉnh Bắc Kạn,Việt Nam,22.050694,105.980993
Xã Dương Sơn,Huyện Na Rì,Tỉnh Bắc Kạn,Việt Nam,22.062866,106.05583
Xã Xuân Dương,Huyện Na Rì,Tỉnh Bắc Kạn,Việt Nam,22.030709,106.073713
Xã Đổng Xá,Huyện Na Rì,Tỉnh Bắc Kạn,Việt Nam,21.993025,105.985356
Xã Liêm Thuỷ,Huyện Na Rì,Tỉnh Bắc Kạn,Việt Nam,21.972282,106.06846
Phường Phan Thiết,Thành phố Tuyên Quang,Tỉnh Tuyên Quang,Việt Nam,21.821664,105.201945
Phường Minh Xuân,Thành phố Tuyên Quang,Tỉnh Tuyên Quang,Việt Nam,21.826146,105.214391
Phường Tân Quang,Thành phố Tuyên Quang,Tỉnh Tuyên Quang,Việt Nam,21.814886,105.21467
Xã Tràng Đà,Thành phố Tuyên Quang,Tỉnh Tuyên Quang,Việt Nam,21.834412,105.220785
Phường Nông Tiến,Thành phố Tuyên Quang,Tỉnh Tuyên Quang,Việt Nam,21.814034,105.226943
Phường Ỷ La,Thành phố Tuyên Quang,Tỉnh Tuyên Quang,Việt Nam,21.814811,105.194178
Phường Tân Hà,Thành phố Tuyên Quang,Tỉnh Tuyên Quang,Việt Nam,21.829751,105.19525
Phường Hưng Thành,Thành phố Tuyên Quang,Tỉnh Tuyên Quang,Việt Nam,21.800986,105.205829
Xã Kim Phú,Thành phố Tuyên Quang,Tỉnh Tuyên Quang,Việt Nam,21.78797,105.217387
Xã An Khang,Thành phố Tuyên Quang,Tỉnh Tuyên Quang,Việt Nam,21.776455,105.254015
Phường Mỹ Lâm,Thành phố Tuyên Quang,Tỉnh Tuyên Quang,Việt Nam,21.78797,105.217387
Phường An Tường,Thành phố Tuyên Quang,Tỉnh Tuyên Quang,Việt Nam,21.783891,105.223145
Xã Lưỡng Vượng,Thành phố Tuyên Quang,Tỉnh Tuyên Quang,Việt Nam,21.774844,105.223231
Xã Thái Long,Thành phố Tuyên Quang,Tỉnh Tuyên Quang,Việt Nam,21.747088,105.249431
Phường Đội Cấn,Thành phố Tuyên Quang,Tỉnh Tuyên Quang,Việt Nam,21.71754,105.237191
Xã Phúc Yên,Huyện Lâm Bình,Tỉnh Tuyên Quang,Việt Nam,22.563041,105.203182
Xã Xuân Lập,Huyện Lâm Bình,Tỉnh Tuyên Quang,Việt Nam,22.511433,105.158741
Xã Khuôn Hà,Huyện Lâm Bình,Tỉnh Tuyên Quang,Việt Nam,22.475964,105.281463
Thị trấn Lăng Can,Huyện Lâm Bình,Tỉnh Tuyên Quang,Việt Nam,22.458583,105.224958
Xã Thượng Lâm,Huyện Lâm Bình,Tỉnh Tuyên Quang,Việt Nam,22.458075,105.289012
Xã Bình An,Huyện Lâm Bình,Tỉnh Tuyên Quang,Việt Nam,22.437564,105.155711
Xã Hồng Quang,Huyện Lâm Bình,Tỉnh Tuyên Quang,Việt Nam,22.367262,105.132862
Xã Thổ Bình,Huyện Lâm Bình,Tỉnh Tuyên Quang,Việt Nam,22.374306,105.18302
Xã Phúc Sơn,Huyện Lâm Bình,Tỉnh Tuyên Quang,Việt Nam,22.398234,105.166455
Xã Minh Quang,Huyện Lâm Bình,Tỉnh Tuyên Quang,Việt Nam,22.331543,105.157406
Thị trấn Na Hang,Huyện Na Hang,Tỉnh Tuyên Quang,Việt Nam,22.351258,105.384172
Xã Sinh Long,Huyện Na Hang,Tỉnh Tuyên Quang,Việt Nam,22.57313,105.389878
Xã Thượng Giáp,Huyện Na Hang,Tỉnh Tuyên Quang,Việt Nam,22.609373,105.498606
Xã Thượng Nông,Huyện Na Hang,Tỉnh Tuyên Quang,Việt Nam,22.574789,105.445841
Xã Côn Lôn,Huyện Na Hang,Tỉnh Tuyên Quang,Việt Nam,22.539006,105.463094
Xã Yên Hoa,Huyện Na Hang,Tỉnh Tuyên Quang,Việt Nam,22.511169,105.476509
Xã Hồng Thái,Huyện Na Hang,Tỉnh Tuyên Quang,Việt Nam,22.533673,105.572422
Xã Đà Vị,Huyện Na Hang,Tỉnh Tuyên Quang,Việt Nam,22.46665,105.533006
Xã Khau Tinh,Huyện Na Hang,Tỉnh Tuyên Quang,Việt Nam,22.463763,105.43797
Xã Sơn Phú,Huyện Na Hang,Tỉnh Tuyên Quang,Việt Nam,22.378083,105.474667
Xã Năng Khả,Huyện Na Hang,Tỉnh Tuyên Quang,Việt Nam,22.415339,105.288419
Xã Thanh Tương,Huyện Na Hang,Tỉnh Tuyên Quang,Việt Nam,22.285951,105.365745
Thị trấn Vĩnh Lộc,Huyện Chiêm Hóa,Tỉnh Tuyên Quang,Việt Nam,22.143786,105.271826
Xã Trung Hà,Huyện Chiêm Hóa,Tỉnh Tuyên Quang,Việt Nam,22.31377,105.084411
Xã Tân Mỹ,Huyện Chiêm Hóa,Tỉnh Tuyên Quang,Việt Nam,22.257053,105.204315
Xã Hà Lang,Huyện Chiêm Hóa,Tỉnh Tuyên Quang,Việt Nam,22.260392,105.144162
Xã Hùng Mỹ,Huyện Chiêm Hóa,Tỉnh Tuyên Quang,Việt Nam,22.237702,105.266007
Xã Yên Lập,Huyện Chiêm Hóa,Tỉnh Tuyên Quang,Việt Nam,22.186515,105.400417
Xã Tân An,Huyện Chiêm Hóa,Tỉnh Tuyên Quang,Việt Nam,22.192845,105.187548
Xã Bình Phú,Huyện Chiêm Hóa,Tỉnh Tuyên Quang,Việt Nam,22.182318,105.435626
Xã Xuân Quang,Huyện Chiêm Hóa,Tỉnh Tuyên Quang,Việt Nam,22.191595,105.263257
Xã Ngọc Hội,Huyện Chiêm Hóa,Tỉnh Tuyên Quang,Việt Nam,22.152297,105.280945
Xã Phú Bình,Huyện Chiêm Hóa,Tỉnh Tuyên Quang,Việt Nam,22.172623,105.350101
Xã Hòa Phú,Huyện Chiêm Hóa,Tỉnh Tuyên Quang,Việt Nam,22.104836,105.179853
Xã Phúc Thịnh,Huyện Chiêm Hóa,Tỉnh Tuyên Quang,Việt Nam,22.165301,105.237571
Xã Kiên Đài,Huyện Chiêm Hóa,Tỉnh Tuyên Quang,Việt Nam,22.095838,105.448363
Xã Tân Thịnh,Huyện Chiêm Hóa,Tỉnh Tuyên Quang,Việt Nam,22.142763,105.214077
Xã Trung Hòa,Huyện Chiêm Hóa,Tỉnh Tuyên Quang,Việt Nam,22.123707,105.254486
Xã Kim Bình,Huyện Chiêm Hóa,Tỉnh Tuyên Quang,Việt Nam,22.072383,105.336907
Xã Hòa An,Huyện Chiêm Hóa,Tỉnh Tuyên Quang,Việt Nam,22.079127,105.25537
Xã Vinh Quang,Huyện Chiêm Hóa,Tỉnh Tuyên Quang,Việt Nam,22.091571,105.294778
Xã Tri Phú,Huyện Chiêm Hóa,Tỉnh Tuyên Quang,Việt Nam,22.055735,105.379977
Xã Nhân Lý,Huyện Chiêm Hóa,Tỉnh Tuyên Quang,Việt Nam,22.061865,105.237684
Xã Yên Nguyên,Huyện Chiêm Hóa,Tỉnh Tuyên Quang,Việt Nam,22.069523,105.177723
Xã Linh Phú,Huyện Chiêm Hóa,Tỉnh Tuyên Quang,Việt Nam,21.967285,105.457469
Xã Bình Nhân,Huyện Chiêm Hóa,Tỉnh Tuyên Quang,Việt Nam,22.061894,105.297398
Thị trấn Tân Yên,Huyện Hàm Yên,Tỉnh Tuyên Quang,Việt Nam,22.068068,105.034951
Xã Yên Thuận,Huyện Hàm Yên,Tỉnh Tuyên Quang,Việt Nam,22.291169,104.932657
Xã Bạch Xa,Huyện Hàm Yên,Tỉnh Tuyên Quang,Việt Nam,22.244,104.920276
Xã Minh Khương,Huyện Hàm Yên,Tỉnh Tuyên Quang,Việt Nam,22.22535,104.970366
Xã Yên Lâm,Huyện Hàm Yên,Tỉnh Tuyên Quang,Việt Nam,22.149188,104.90621
Xã Minh Dân,Huyện Hàm Yên,Tỉnh Tuyên Quang,Việt Nam,22.19056,104.994839
Xã Phù Lưu,Huyện Hàm Yên,Tỉnh Tuyên Quang,Việt Nam,22.168097,105.03218
Xã Minh Hương,Huyện Hàm Yên,Tỉnh Tuyên Quang,Việt Nam,22.111998,105.122651
Xã Yên Phú,Huyện Hàm Yên,Tỉnh Tuyên Quang,Việt Nam,22.106917,104.995232
Xã Tân Thành,Huyện Hàm Yên,Tỉnh Tuyên Quang,Việt Nam,22.088302,105.075573
Xã Bình Xa,Huyện Hàm Yên,Tỉnh Tuyên Quang,Việt Nam,22.052996,105.131809
Xã Thái Sơn,Huyện Hàm Yên,Tỉnh Tuyên Quang,Việt Nam,22.019244,105.094904
Xã Nhân Mục,Huyện Hàm Yên,Tỉnh Tuyên Quang,Việt Nam,22.027612,105.0336
Xã Thành Long,Huyện Hàm Yên,Tỉnh Tuyên Quang,Việt Nam,21.989732,105.062396
Xã Bằng Cốc,Huyện Hàm Yên,Tỉnh Tuyên Quang,Việt Nam,22.01286,105.031918
Xã Thái Hòa,Huyện Hàm Yên,Tỉnh Tuyên Quang,Việt Nam,21.973124,105.118435
Xã Đức Ninh,Huyện Hàm Yên,Tỉnh Tuyên Quang,Việt Nam,21.939734,105.12465
Xã Hùng Đức,Huyện Hàm Yên,Tỉnh Tuyên Quang,Việt Nam,21.908881,105.097693
Xã Quí Quân,Huyện Yên Sơn,Tỉnh Tuyên Quang,Việt Nam,22.003797,105.234875
Xã Lực Hành,Huyện Yên Sơn,Tỉnh Tuyên Quang,Việt Nam,22.025861,105.19771
Xã Kiến Thiết,Huyện Yên Sơn,Tỉnh Tuyên Quang,Việt Nam,21.98972,105.299716
Xã Trung Minh,Huyện Yên Sơn,Tỉnh Tuyên Quang,Việt Nam,21.956371,105.514174
Xã Chiêu Yên,Huyện Yên Sơn,Tỉnh Tuyên Quang,Việt Nam,21.985909,105.159835
Xã Trung Trực,Huyện Yên Sơn,Tỉnh Tuyên Quang,Việt Nam,21.930607,105.274673
Xã Xuân Vân,Huyện Yên Sơn,Tỉnh Tuyên Quang,Việt Nam,21.951945,105.226023
Xã Phúc Ninh,Huyện Yên Sơn,Tỉnh Tuyên Quang,Việt Nam,21.935239,105.172568
Xã Hùng Lợi,Huyện Yên Sơn,Tỉnh Tuyên Quang,Việt Nam,21.913387,105.460816
Xã Trung Sơn,Huyện Yên Sơn,Tỉnh Tuyên Quang,Việt Nam,21.868964,105.409333
Xã Tân Tiến,Huyện Yên Sơn,Tỉnh Tuyên Quang,Việt Nam,21.883699,105.276224
Xã Tứ Quận,Huyện Yên Sơn,Tỉnh Tuyên Quang,Việt Nam,21.907649,105.12935
Xã Đạo Viện,Huyện Yên Sơn,Tỉnh Tuyên Quang,Việt Nam,21.864317,105.35831
Xã Tân Long,Huyện Yên Sơn,Tỉnh Tuyên Quang,Việt Nam,21.881685,105.234585
Thị trấn Yên Sơn,Huyện Yên Sơn,Tỉnh Tuyên Quang,Việt Nam,21.876697,105.139686
Xã Kim Quan,Huyện Yên Sơn,Tỉnh Tuyên Quang,Việt Nam,21.864568,105.447987
Xã Lang Quán,Huyện Yên Sơn,Tỉnh Tuyên Quang,Việt Nam,21.85577,105.109544
Xã Phú Thịnh,Huyện Yên Sơn,Tỉnh Tuyên Quang,Việt Nam,21.837189,105.283796
Xã Công Đa,Huyện Yên Sơn,Tỉnh Tuyên Quang,Việt Nam,21.833841,105.366154
Xã Trung Môn,Huyện Yên Sơn,Tỉnh Tuyên Quang,Việt Nam,21.830534,105.172415
Xã Chân Sơn,Huyện Yên Sơn,Tỉnh Tuyên Quang,Việt Nam,21.822979,105.141028
Xã Thái Bình,Huyện Yên Sơn,Tỉnh Tuyên Quang,Việt Nam,21.810177,105.310556
Xã Tiến Bộ,Huyện Yên Sơn,Tỉnh Tuyên Quang,Việt Nam,21.773927,105.30604
Xã Mỹ Bằng,Huyện Yên Sơn,Tỉnh Tuyên Quang,Việt Nam,21.74419,105.076385
Xã Hoàng Khai,Huyện Yên Sơn,Tỉnh Tuyên Quang,Việt Nam,21.761783,105.189478
Xã Nhữ Hán,Huyện Yên Sơn,Tỉnh Tuyên Quang,Việt Nam,21.717091,105.124584
Xã Nhữ Khê,Huyện Yên Sơn,Tỉnh Tuyên Quang,Việt Nam,21.699619,105.161284
Xã Đội Bình,Huyện Yên Sơn,Tỉnh Tuyên Quang,Việt Nam,21.667323,105.228656
Thị trấn Sơn Dương,Huyện Sơn Dương,Tỉnh Tuyên Quang,Việt Nam,21.698465,105.391864
Xã Trung Yên,Huyện Sơn Dương,Tỉnh Tuyên Quang,Việt Nam,21.807072,105.452072
Xã Minh Thanh,Huyện Sơn Dương,Tỉnh Tuyên Quang,Việt Nam,21.77032,105.40971
Xã Tân Trào,Huyện Sơn Dương,Tỉnh Tuyên Quang,Việt Nam,21.77893,105.441536
Xã Vĩnh Lợi,Huyện Sơn Dương,Tỉnh Tuyên Quang,Việt Nam,21.749161,105.277469
Xã Thượng Ấm,Huyện Sơn Dương,Tỉnh Tuyên Quang,Việt Nam,21.741637,105.316999
Xã Bình Yên,Huyện Sơn Dương,Tỉnh Tuyên Quang,Việt Nam,21.743132,105.436858
Xã Lương Thiện,Huyện Sơn Dương,Tỉnh Tuyên Quang,Việt Nam,21.745788,105.468662
Xã Tú Thịnh,Huyện Sơn Dương,Tỉnh Tuyên Quang,Việt Nam,21.726822,105.402884
Xã Cấp Tiến,Huyện Sơn Dương,Tỉnh Tuyên Quang,Việt Nam,21.704285,105.274596
Xã Hợp Thành,Huyện Sơn Dương,Tỉnh Tuyên Quang,Việt Nam,21.706972,105.432154
Xã Phúc Ứng,Huyện Sơn Dương,Tỉnh Tuyên Quang,Việt Nam,21.68407,105.345154
Xã Đông Thọ,Huyện Sơn Dương,Tỉnh Tuyên Quang,Việt Nam,21.651782,105.252893
Xã Kháng Nhật,Huyện Sơn Dương,Tỉnh Tuyên Quang,Việt Nam,21.668636,105.426671
Xã Hợp Hòa,Huyện Sơn Dương,Tỉnh Tuyên Quang,Việt Nam,21.620928,105.427465
Xã Quyết Thắng,Huyện Sơn Dương,Tỉnh Tuyên Quang,Việt Nam,21.626331,105.244519
Xã Đồng Quý,Huyện Sơn Dương,Tỉnh Tuyên Quang,Việt Nam,21.629298,105.277694
Xã Tân Thanh,Huyện Sơn Dương,Tỉnh Tuyên Quang,Việt Nam,21.698465,105.391864
Xã Vân Sơn,Huyện Sơn Dương,Tỉnh Tuyên Quang,Việt Nam,21.601701,105.251767
Xã Văn Phú,Huyện Sơn Dương,Tỉnh Tuyên Quang,Việt Nam,21.600904,105.285373
Xã Chi Thiết,Huyện Sơn Dương,Tỉnh Tuyên Quang,Việt Nam,21.582365,105.297332
Xã Đông Lợi,Huyện Sơn Dương,Tỉnh Tuyên Quang,Việt Nam,21.582426,105.324086
Xã Thiện Kế,Huyện Sơn Dương,Tỉnh Tuyên Quang,Việt Nam,21.568196,105.467151
Xã Hồng Lạc,Huyện Sơn Dương,Tỉnh Tuyên Quang,Việt Nam,21.578857,105.272988
Xã Phú Lương,Huyện Sơn Dương,Tỉnh Tuyên Quang,Việt Nam,21.540755,105.369358
Xã Ninh Lai,Huyện Sơn Dương,Tỉnh Tuyên Quang,Việt Nam,21.542172,105.495443
Xã Đại Phú,Huyện Sơn Dương,Tỉnh Tuyên Quang,Việt Nam,21.541194,105.438237
Xã Sơn Nam,Huyện Sơn Dương,Tỉnh Tuyên Quang,Việt Nam,21.548728,105.472049
Xã Hào Phú,Huyện Sơn Dương,Tỉnh Tuyên Quang,Việt Nam,21.551412,105.315568
Xã Tam Đa,Huyện Sơn Dương,Tỉnh Tuyên Quang,Việt Nam,21.533091,105.343909
Xã Trường Sinh,Huyện Sơn Dương,Tỉnh Tuyên Quang,Việt Nam,21.698465,105.391864
Phường Duyên Hải,Thành phố Lào Cai,Tỉnh Lào Cai,Việt Nam,22.502378,103.959058
Phường Lào Cai,Thành phố Lào Cai,Tỉnh Lào Cai,Việt Nam,22.508212,103.968077
Phường Cốc Lếu,Thành phố Lào Cai,Tỉnh Lào Cai,Việt Nam,22.495594,103.967135
Phường Kim Tân,Thành phố Lào Cai,Tỉnh Lào Cai,Việt Nam,22.479183,103.972289
Phường Bắc Lệnh,Thành phố Lào Cai,Tỉnh Lào Cai,Việt Nam,22.433453,104.009982
Phường Pom Hán,Thành phố Lào Cai,Tỉnh Lào Cai,Việt Nam,22.420084,104.02011
Phường Xuân Tăng,Thành phố Lào Cai,Tỉnh Lào Cai,Việt Nam,22.418943,104.05076
Phường Bình Minh,Thành phố Lào Cai,Tỉnh Lào Cai,Việt Nam,22.429974,104.029465
Xã Thống Nhất,Thành phố Lào Cai,Tỉnh Lào Cai,Việt Nam,22.409133,104.044797
Xã Đồng Tuyển,Thành phố Lào Cai,Tỉnh Lào Cai,Việt Nam,22.498794,103.948065
Xã Vạn Hoà,Thành phố Lào Cai,Tỉnh Lào Cai,Việt Nam,22.478183,104.025041
Phường Bắc Cường,Thành phố Lào Cai,Tỉnh Lào Cai,Việt Nam,22.469778,103.981215
Phường Nam Cường,Thành phố Lào Cai,Tỉnh Lào Cai,Việt Nam,22.450954,103.996595
Xã Cam Đường,Thành phố Lào Cai,Tỉnh Lào Cai,Việt Nam,22.40528,104.024092
Xã Tả Phời,Thành phố Lào Cai,Tỉnh Lào Cai,Việt Nam,22.420683,103.965406
Xã Hợp Thành,Thành phố Lào Cai,Tỉnh Lào Cai,Việt Nam,22.378632,104.006541
Xã Cốc San,Thành phố Lào Cai,Tỉnh Lào Cai,Việt Nam,22.499745,103.965692
Thị trấn Bát Xát,Huyện Bát Xát,Tỉnh Lào Cai,Việt Nam,22.541997,103.890689
Xã A Mú Sung,Huyện Bát Xát,Tỉnh Lào Cai,Việt Nam,22.767383,103.64557
Xã Nậm Chạc,Huyện Bát Xát,Tỉnh Lào Cai,Việt Nam,22.709128,103.71972
Xã A Lù,Huyện Bát Xát,Tỉnh Lào Cai,Việt Nam,22.723094,103.593565
Xã Trịnh Tường,Huyện Bát Xát,Tỉnh Lào Cai,Việt Nam,22.691661,103.744237
Xã Y Tý,Huyện Bát Xát,Tỉnh Lào Cai,Việt Nam,22.657997,103.612801
Xã Cốc Mỳ,Huyện Bát Xát,Tỉnh Lào Cai,Việt Nam,22.632624,103.788026
Xã Dền Sáng,Huyện Bát Xát,Tỉnh Lào Cai,Việt Nam,22.564489,103.675438
Xã Bản Vược,Huyện Bát Xát,Tỉnh Lào Cai,Việt Nam,22.593459,103.838139
Xã Sàng Ma Sáo,Huyện Bát Xát,Tỉnh Lào Cai,Việt Nam,22.543658,103.68044
Xã Bản Qua,Huyện Bát Xát,Tỉnh Lào Cai,Việt Nam,22.556395,103.867225
Xã Mường Vi,Huyện Bát Xát,Tỉnh Lào Cai,Việt Nam,22.562668,103.812486
Xã Dền Thàng,Huyện Bát Xát,Tỉnh Lào Cai,Việt Nam,22.552673,103.714042
Xã Bản Xèo,Huyện Bát Xát,Tỉnh Lào Cai,Việt Nam,22.53834,103.750551
Xã Mường Hum,Huyện Bát Xát,Tỉnh Lào Cai,Việt Nam,22.516824,103.698922
Xã Trung Lèng Hồ,Huyện Bát Xát,Tỉnh Lào Cai,Việt Nam,22.503827,103.616394
Xã Quang Kim,Huyện Bát Xát,Tỉnh Lào Cai,Việt Nam,22.510768,103.913001
Xã Pa Cheo,Huyện Bát Xát,Tỉnh Lào Cai,Việt Nam,22.51123,103.799434
Xã Nậm Pung,Huyện Bát Xát,Tỉnh Lào Cai,Việt Nam,22.461737,103.724535
Xã Phìn Ngan,Huyện Bát Xát,Tỉnh Lào Cai,Việt Nam,22.467746,103.86499
Xã Tòng Sành,Huyện Bát Xát,Tỉnh Lào Cai,Việt Nam,22.433592,103.899744
Xã Pha Long,Huyện Mường Khương,Tỉnh Lào Cai,Việt Nam,22.812756,104.228552
Xã Tả Ngải Chồ,Huyện Mường Khương,Tỉnh Lào Cai,Việt Nam,22.807676,104.199548
Xã Tung Chung Phố,Huyện Mường Khương,Tỉnh Lào Cai,Việt Nam,22.76161,104.131873
Thị trấn Mường Khương,Huyện Mường Khương,Tỉnh Lào Cai,Việt Nam,22.759494,104.116289
Xã Dìn Chin,Huyện Mường Khương,Tỉnh Lào Cai,Việt Nam,22.77093,104.213189
Xã Tả Gia Khâu,Huyện Mường Khương,Tỉnh Lào Cai,Việt Nam,22.731274,104.232535
Xã Nậm Chảy,Huyện Mường Khương,Tỉnh Lào Cai,Việt Nam,22.701204,104.051683
Xã Nấm Lư,Huyện Mường Khương,Tỉnh Lào Cai,Việt Nam,22.73406,104.140126
Xã Lùng Khấu Nhin,Huyện Mường Khương,Tỉnh Lào Cai,Việt Nam,22.712283,104.155307
Xã Thanh Bình,Huyện Mường Khương,Tỉnh Lào Cai,Việt Nam,22.697669,104.088493
Xã Cao Sơn,Huyện Mường Khương,Tỉnh Lào Cai,Việt Nam,22.637922,104.171752
Xã Lùng Vai,Huyện Mường Khương,Tỉnh Lào Cai,Việt Nam,22.623868,104.088875
Xã Bản Lầu,Huyện Mường Khương,Tỉnh Lào Cai,Việt Nam,22.560746,104.058841
Xã La Pan Tẩn,Huyện Mường Khương,Tỉnh Lào Cai,Việt Nam,22.605056,104.161498
Xã Tả Thàng,Huyện Mường Khương,Tỉnh Lào Cai,Việt Nam,22.548447,104.182126
Xã Bản Sen,Huyện Mường Khương,Tỉnh Lào Cai,Việt Nam,22.570319,104.094677
Xã Nàn Sán,Huyện Si Ma Cai,Tỉnh Lào Cai,Việt Nam,22.710663,104.275837
Xã Thào Chư Phìn,Huyện Si Ma Cai,Tỉnh Lào Cai,Việt Nam,22.700501,104.192777
Xã Bản Mế,Huyện Si Ma Cai,Tỉnh Lào Cai,Việt Nam,22.687564,104.222379
Thị trấn Si Ma Cai,Huyện Si Ma Cai,Tỉnh Lào Cai,Việt Nam,22.69185,104.274066
Xã Sán Chải,Huyện Si Ma Cai,Tỉnh Lào Cai,Việt Nam,22.698804,104.315185
Xã Lùng Thẩn,Huyện Si Ma Cai,Tỉnh Lào Cai,Việt Nam,22.69185,104.274066
Xã Cán Cấu,Huyện Si Ma Cai,Tỉnh Lào Cai,Việt Nam,22.642187,104.303328
Xã Sín Chéng,Huyện Si Ma Cai,Tỉnh Lào Cai,Việt Nam,22.649835,104.218539
Xã Quan Hồ Thẩn,Huyện Si Ma Cai,Tỉnh Lào Cai,Việt Nam,22.69185,104.274066
Xã Nàn Xín,Huyện Si Ma Cai,Tỉnh Lào Cai,Việt Nam,22.60537,104.219473
Thị trấn Bắc Hà,Huyện Bắc Hà,Tỉnh Lào Cai,Việt Nam,22.537756,104.291557
Xã Lùng Cải,Huyện Bắc Hà,Tỉnh Lào Cai,Việt Nam,22.657057,104.383116
Xã Lùng Phình,Huyện Bắc Hà,Tỉnh Lào Cai,Việt Nam,22.593971,104.323361
Xã Tả Van Chư,Huyện Bắc Hà,Tỉnh Lào Cai,Việt Nam,22.600752,104.26106
Xã Tả Củ Tỷ,Huyện Bắc Hà,Tỉnh Lào Cai,Việt Nam,22.603243,104.427975
Xã Thải Giàng Phố,Huyện Bắc Hà,Tỉnh Lào Cai,Việt Nam,22.550827,104.303551
Xã Hoàng Thu Phố,Huyện Bắc Hà,Tỉnh Lào Cai,Việt Nam,22.556584,104.211091
Xã Bản Phố,Huyện Bắc Hà,Tỉnh Lào Cai,Việt Nam,22.553495,104.275494
Xã Bản Liền,Huyện Bắc Hà,Tỉnh Lào Cai,Việt Nam,22.517532,104.398562
Xã Tà Chải,Huyện Bắc Hà,Tỉnh Lào Cai,Việt Nam,22.538687,104.301743
Xã Na Hối,Huyện Bắc Hà,Tỉnh Lào Cai,Việt Nam,22.517288,104.293567
Xã Cốc Ly,Huyện Bắc Hà,Tỉnh Lào Cai,Việt Nam,22.504464,104.193038
Xã Nậm Mòn,Huyện Bắc Hà,Tỉnh Lào Cai,Việt Nam,22.485544,104.261592
Xã Nậm Đét,Huyện Bắc Hà,Tỉnh Lào Cai,Việt Nam,22.464343,104.336228
Xã Nậm Khánh,Huyện Bắc Hà,Tỉnh Lào Cai,Việt Nam,22.438321,104.335164
Xã Bảo Nhai,Huyện Bắc Hà,Tỉnh Lào Cai,Việt Nam,22.427144,104.263662
Xã Nậm Lúc,Huyện Bắc Hà,Tỉnh Lào Cai,Việt Nam,22.389451,104.337797
Xã Cốc Lầu,Huyện Bắc Hà,Tỉnh Lào Cai,Việt Nam,22.390441,104.266531
Xã Bản Cái,Huyện Bắc Hà,Tỉnh Lào Cai,Việt Nam,22.36231,104.415242
Thị trấn N.T Phong Hải,Huyện Bảo Thắng,Tỉnh Lào Cai,Việt Nam,22.473446,104.144958
Thị trấn Phố Lu,Huyện Bảo Thắng,Tỉnh Lào Cai,Việt Nam,22.283325,104.221487
Thị trấn Tằng Loỏng,Huyện Bảo Thắng,Tỉnh Lào Cai,Việt Nam,22.30842,104.122138
Xã Bản Phiệt,Huyện Bảo Thắng,Tỉnh Lào Cai,Việt Nam,22.514633,104.035372
Xã Bản Cầm,Huyện Bảo Thắng,Tỉnh Lào Cai,Việt Nam,22.510251,104.051304
Xã Thái Niên,Huyện Bảo Thắng,Tỉnh Lào Cai,Việt Nam,22.403747,104.13287
Xã Phong Niên,Huyện Bảo Thắng,Tỉnh Lào Cai,Việt Nam,22.40544,104.203246
Xã Gia Phú,Huyện Bảo Thắng,Tỉnh Lào Cai,Việt Nam,22.368489,104.082017
Xã Xuân Quang,Huyện Bảo Thắng,Tỉnh Lào Cai,Việt Nam,22.357731,104.231615
Xã Sơn Hải,Huyện Bảo Thắng,Tỉnh Lào Cai,Việt Nam,22.348316,104.14542
Xã Xuân Giao,Huyện Bảo Thắng,Tỉnh Lào Cai,Việt Nam,22.343106,104.112291
Xã Trì Quang,Huyện Bảo Thắng,Tỉnh Lào Cai,Việt Nam,22.299625,104.24008
Xã Sơn Hà,Huyện Bảo Thắng,Tỉnh Lào Cai,Việt Nam,22.310539,104.181636
Xã Phú Nhuận,Huyện Bảo Thắng,Tỉnh Lào Cai,Việt Nam,22.28532,104.140861
Thị trấn Phố Ràng,Huyện Bảo Yên,Tỉnh Lào Cai,Việt Nam,22.235419,104.477024
Xã Tân Tiến,Huyện Bảo Yên,Tỉnh Lào Cai,Việt Nam,22.443482,104.426595
Xã Nghĩa Đô,Huyện Bảo Yên,Tỉnh Lào Cai,Việt Nam,22.384356,104.467093
Xã Vĩnh Yên,Huyện Bảo Yên,Tỉnh Lào Cai,Việt Nam,22.378293,104.493518
Xã Điện Quan,Huyện Bảo Yên,Tỉnh Lào Cai,Việt Nam,22.318049,104.343816
Xã Xuân Hoà,Huyện Bảo Yên,Tỉnh Lào Cai,Việt Nam,22.296177,104.515827
Xã Tân Dương,Huyện Bảo Yên,Tỉnh Lào Cai,Việt Nam,22.266782,104.485971
Xã Thượng Hà,Huyện Bảo Yên,Tỉnh Lào Cai,Việt Nam,22.291935,104.394299
Xã Kim Sơn,Huyện Bảo Yên,Tỉnh Lào Cai,Việt Nam,22.248287,104.327053
Xã Cam Cọn,Huyện Bảo Yên,Tỉnh Lào Cai,Việt Nam,22.232668,104.266697
Xã Minh Tân,Huyện Bảo Yên,Tỉnh Lào Cai,Việt Nam,22.249644,104.441306
Xã Xuân Thượng,Huyện Bảo Yên,Tỉnh Lào Cai,Việt Nam,22.267946,104.507485
Xã Việt Tiến,Huyện Bảo Yên,Tỉnh Lào Cai,Việt Nam,22.211731,104.582743
Xã Yên Sơn,Huyện Bảo Yên,Tỉnh Lào Cai,Việt Nam,22.218343,104.448622
Xã Bảo Hà,Huyện Bảo Yên,Tỉnh Lào Cai,Việt Nam,22.176858,104.356001
Xã Lương Sơn,Huyện Bảo Yên,Tỉnh Lào Cai,Việt Nam,22.204191,104.507583
Xã Phúc Khánh,Huyện Bảo Yên,Tỉnh Lào Cai,Việt Nam,22.220084,104.389686
Phường Sa Pa,Thị xã Sa Pa,Tỉnh Lào Cai,Việt Nam,22.335967,103.842657
Phường Sa Pả,Thị xã Sa Pa,Tỉnh Lào Cai,Việt Nam,22.335967,103.842657
Phường Ô Quý Hồ,Thị xã Sa Pa,Tỉnh Lào Cai,Việt Nam,22.345419,103.80918
Xã Ngũ Chỉ Sơn,Thị xã Sa Pa,Tỉnh Lào Cai,Việt Nam,22.450297,103.82051
Phường Phan Si Păng,Thị xã Sa Pa,Tỉnh Lào Cai,Việt Nam,22.348006,103.861864
Xã Trung Chải,Thị xã Sa Pa,Tỉnh Lào Cai,Việt Nam,22.420434,103.889167
Xã Tả Phìn,Thị xã Sa Pa,Tỉnh Lào Cai,Việt Nam,22.395292,103.843026
Phường Hàm Rồng,Thị xã Sa Pa,Tỉnh Lào Cai,Việt Nam,22.333565,103.842484
Xã Hoàng Liên,Thị xã Sa Pa,Tỉnh Lào Cai,Việt Nam,22.310015,103.876226
Xã Thanh Bình,Thị xã Sa Pa,Tỉnh Lào Cai,Việt Nam,22.291275,103.962117
Phường Cầu Mây,Thị xã Sa Pa,Tỉnh Lào Cai,Việt Nam,22.30031,103.904268
Xã Mường Hoa,Thị xã Sa Pa,Tỉnh Lào Cai,Việt Nam,22.304145,103.907826
Xã Tả Van,Thị xã Sa Pa,Tỉnh Lào Cai,Việt Nam,22.301589,103.890912
Xã Mường Bo,Thị xã Sa Pa,Tỉnh Lào Cai,Việt Nam,22.262119,104.019266
Xã Bản Hồ,Thị xã Sa Pa,Tỉnh Lào Cai,Việt Nam,22.211129,103.929999
Xã Liên Minh,Thị xã Sa Pa,Tỉnh Lào Cai,Việt Nam,22.231373,104.025445
Thị trấn Khánh Yên,Huyện Văn Bàn,Tỉnh Lào Cai,Việt Nam,22.088992,104.25278
Xã Võ Lao,Huyện Văn Bàn,Tỉnh Lào Cai,Việt Nam,22.20463,104.189149
Xã Sơn Thuỷ,Huyện Văn Bàn,Tỉnh Lào Cai,Việt Nam,22.142635,104.280666
Xã Nậm Mả,Huyện Văn Bàn,Tỉnh Lào Cai,Việt Nam,22.197765,104.18359
Xã Tân Thượng,Huyện Văn Bàn,Tỉnh Lào Cai,Việt Nam,22.164064,104.339411
Xã Nậm Rạng,Huyện Văn Bàn,Tỉnh Lào Cai,Việt Nam,22.14498,104.200953
Xã Nậm Chầy,Huyện Văn Bàn,Tỉnh Lào Cai,Việt Nam,22.129886,104.064826
Xã Tân An,Huyện Văn Bàn,Tỉnh Lào Cai,Việt Nam,22.16268,104.362463
Xã Khánh Yên Thượng,Huyện Văn Bàn,Tỉnh Lào Cai,Việt Nam,22.082877,104.266149
Xã Nậm Xé,Huyện Văn Bàn,Tỉnh Lào Cai,Việt Nam,22.036313,104.023297
Xã Dần Thàng,Huyện Văn Bàn,Tỉnh Lào Cai,Việt Nam,22.083314,104.071218
Xã Chiềng Ken,Huyện Văn Bàn,Tỉnh Lào Cai,Việt Nam,22.051717,104.338805
Xã Làng Giàng,Huyện Văn Bàn,Tỉnh Lào Cai,Việt Nam,22.086208,104.237986
Xã Hoà Mạc,Huyện Văn Bàn,Tỉnh Lào Cai,Việt Nam,22.090649,104.200436
Xã Khánh Yên Trung,Huyện Văn Bàn,Tỉnh Lào Cai,Việt Nam,22.086356,104.29033
Xã Khánh Yên Hạ,Huyện Văn Bàn,Tỉnh Lào Cai,Việt Nam,22.05485,104.315605
Xã Dương Quỳ,Huyện Văn Bàn,Tỉnh Lào Cai,Việt Nam,22.054626,104.141046
Xã Nậm Tha,Huyện Văn Bàn,Tỉnh Lào Cai,Việt Nam,21.973981,104.391059
Xã Minh Lương,Huyện Văn Bàn,Tỉnh Lào Cai,Việt Nam,22.023145,104.060732
Xã Thẩm Dương,Huyện Văn Bàn,Tỉnh Lào Cai,Việt Nam,22.031246,104.100568
Xã Liêm Phú,Huyện Văn Bàn,Tỉnh Lào Cai,Việt Nam,22.02484,104.312084
Xã Nậm Xây,Huyện Văn Bàn,Tỉnh Lào Cai,Việt Nam,21.980012,104.080941
Phường Noong Bua,Thành phố Điện Biên Phủ,Tỉnh Điện Biên,Việt Nam,21.385462,103.033913
Phường Him Lam,Thành phố Điện Biên Phủ,Tỉnh Điện Biên,Việt Nam,21.400674,103.020064
Phường Thanh Bình,Thành phố Điện Biên Phủ,Tỉnh Điện Biên,Việt Nam,21.404753,103.008598
